Nombre;Tipo;Latitud;Longitud;Latitud Inicio;Longitud Inicio;Latitud Fin;Longitud Fin;Estilo;Visibilidad;isla;Isla;Velocidad;id celda;Porcentaje;
Turbonett (NOC_TURB);Punto;14.61009167;-90.52598611;;;;;#stylemap_tipo_sitio_roadm0;1;;TORRE;;;;
TORRE ZONA 08 (GNCYGTZA);Punto;14.60944444;-90.52611111;;;;;#stylemap_tipo_sitio_ila;1;TIVOLI;;;1011-1149;;
NAHUALA (SNAHGTNA);Punto;14.84222222;-91.31805556;;;;;#stylemap_tipo_sitio_roadm0;1;;TOTONICAPAN;;2336;;
CELDA ALASKA (SNAHGTAL);Punto;14.84583333;-91.35888889;;;;;#stylemap_tipo_sitio_roadm0;1;TOTONICAPAN;;;2328;;
TOTONICAPAN (TTNCGTTT);Punto;14.91055556;-91.35833333;;;;;#stylemap_tipo_sitio_ila;1;;TOTONICAPAN;;2409;;
CELDA PALOMORA TOTONICAPAN (TSAXGTPT);Punto;14.88102778;-91.36621944;;;;;#stylemap_tipo_sitio_roadm0;1;TOTONICAPAN;;;2905;;
CELDA XANTUN (TTNCGTXA);Punto;14.91146944;-91.38316667;;;;;#stylemap_tipo_sitio_roadm0;1;;TOTONICAPAN;;2908;;
CELDA LOS VASQUEZ (TTNCGTLV);Punto;14.86138889;-91.3954;;;;;#stylemap_tipo_sitio_roadm0;1;;TOTONICAPAN;;2491;;
LA GOMERA_XT_DET (EGOMGTGX);Punto;14.084156;-91.050981;;;;;#stylemap_tipo_sitio_roadm0;1;;ESCUINTLA;;4099;;
LA GOMERA (EGOMGTGO);Punto;14.08111111;-91.05222222;;;;;#stylemap_tipo_sitio_roadm0;1;ESCUINTLA;;;9327;;
NUEVA CONCEPCION_XT (ENCOGTNP);Punto;14.18828056;-91.29875;;;;;#stylemap_tipo_sitio_roadm0;1;;ESCUINTLA;;6425;;
NUEVA CONCEPCION (ENCOGTNC);Punto;14.18444444;-91.3;;;;;#stylemap_tipo_sitio_roadm0;1;ESCUINTLA;;;2224;;
PINULA_XT_TR (ETIQGTPI);Punto;14.2548;-91.3238;;;;;#stylemap_tipo_sitio_roadm0;1;;ESCUINTLA;;4640;;
TIQUISATE_XT_DET (EESCGTTX);Punto;14.288398;-91.367801;;;;;#stylemap_tipo_sitio_roadm0;1;ESCUINTLA;;;4101;;
CELDA EL RODEO (AUTODROMO LOS VOLCANES) (EESCGTER);Punto;14.39416667;-90.83;;;;;#stylemap_tipo_sitio_roadm0;1;;ESCUINTLA;;2273;;
ESCUINTLA (EESCGTES);Punto;14.30055556;-90.78638889;;;;;#stylemap_tipo_sitio_ila;1;ESCUINTLA;;;2203;;
CELDA CERRO COLORADO (EGOMGTCO);Punto;14.16577778;-91.16630556;;;;;#stylemap_tipo_sitio_roadm0;1;;ESCUINTLA;;4201;;
CELDA LAS CRUCES ESCUINTLA (EGOMGTLC);Punto;14.11508333;-91.15205556;;;;;#stylemap_tipo_sitio_roadm0;1;ESCUINTLA;;;3215;;
TIQUISATE (ETIQGTTI);Punto;14.28916667;-91.36777778;;;;;#stylemap_tipo_sitio_roadm0;1;ESCUINTLA;;;2218;;
CELDA EL MODELO SAN JOSE (ESJOGTMA);Punto;13.9243;-90.8513;;;;;#stylemap_tipo_sitio_roadm0;1;;ESCUINTLA;;1585;;
CELDA CHULAMAR COUBICADO (ESJOGTCC);Punto;13.9217;-90.86766944;;;;;#stylemap_tipo_sitio_roadm0;1;ESCUINTLA;;;4415;;
PUERTO DE SAN JOSE (ESJOGTPS);Punto;13.92694444;-90.81916667;;;;;#stylemap_tipo_sitio_roadm0;1;ESCUINTLA;;;9341;;
CELDA COCALES (MPATGTCA);Punto;14.39602778;-91.19536111;;;;;#stylemap_tipo_sitio_roadm0;1;;ESCUINTLA;;2214;;
PATULUL (MPATGTPA);Punto;14.42083333;-91.16;;;;;#stylemap_tipo_sitio_roadm0;1;ESCUINTLA;;;2215;;
CELDA COCALES - SAN CARLOS (MPATGTCS);Punto;14.37955556;-91.16541667;;;;;#stylemap_tipo_sitio_roadm0;1;ESCUINTLA;;;3734;;
CELDA ESCUINTLA V (TREBOL) (ESLCGTEV);Punto;14.2854;-90.7979;;;;;#stylemap_tipo_sitio_roadm0;1;;ESCUINTLA;;4202;;
CELDA EL HATILLO (ESIQGTEH);Punto;14.2664;-90.8429;;;;;#stylemap_tipo_sitio_roadm0;1;ESCUINTLA;;;2207;;
EL CONACASTE _XT (EIZTGTCX);Punto;13.92875;-90.66008333;;;;;#stylemap_tipo_sitio_roadm0;1;;ESCUINTLA;;6297;;
LA CANDELARIA_XT (OTAXGTCX);Punto;13.91522222;-90.55336111;;;;;#stylemap_tipo_sitio_roadm0;1;ESCUINTLA;;;6227;;
CELDA PUERTO DE IZTAPA (EIZTGTPZ);Punto;13.9386;-90.724;;;;;#stylemap_tipo_sitio_roadm0;1;ESCUINTLA;;;2206;;
ESCUINTLA CENTRO (ESC151)_XT_SBA (EESCGTET);Punto;14.30448889;-90.78208889;;;;;#stylemap_tipo_sitio_roadm0;1;;ESCUINTLA;;4759;;
PUERTO DE SAN JOSE_XT_SBA (ESJOGTPX);Punto;13.93047222;-90.82316667;;;;;#stylemap_tipo_sitio_roadm0;1;;ESCUINTLA;;6094;;
BARRIO PEÑATE PUERTO DE SAN JOSE_XT_TR (ESJOGTBP);Punto;13.93938;-90.81783;;;;;#stylemap_tipo_sitio_roadm0;1;;ESCUINTLA;;3081;;
CELDA LA LIBERTAD ESCUINTLA (ESJOGTLB);Punto;13.97597222;-90.85988889;;;;;#stylemap_tipo_sitio_roadm0;1;;ESCUINTLA;;3750;;
CELDA ARIZONA (ESJOGTAR);Punto;13.95844444;-90.82172222;;;;;#stylemap_tipo_sitio_roadm0;1;ESCUINTLA;;;4221;;
CELDA SANTA ISABEL COUBICADO (ESJOGTFS);Punto;13.97291667;-90.84050556;;;;;#stylemap_tipo_sitio_roadm0;1;ESCUINTLA;;;4891;;
LIKIN (ESC215)_XT_SBA (ESJOGTLE);Punto;13.93322;-90.7624636;;;;;#stylemap_tipo_sitio_roadm0;1;;ESCUINTLA;;6076;;
LIKIN (ESJOGTLI);Punto;13.9334;-90.7767;;;;;#stylemap_tipo_sitio_roadm0;1;ESCUINTLA;;;;;
CELDA CEILAN (ESIQGTCE);Punto;14.39444444;-90.8995;;;;;#stylemap_tipo_sitio_roadm0;1;;ESCUINTLA;;3242;;
CELDA SAN ANDRES OSUNA (EESCGTSN);Punto;14.37772222;-90.92369444;;;;;#stylemap_tipo_sitio_roadm0;1;ESCUINTLA;;;4207;;
GUANAGAZAPA (EGUAGTGU);Punto;14.2259;-90.6427;;;;;#stylemap_tipo_sitio_roadm0;1;;ESCUINTLA;;2660;;
CELDA EL MANANTIAL (EGUAGTEM);Punto;14.2067;-90.7177;;;;;#stylemap_tipo_sitio_roadm0;1;ESCUINTLA;;;1270;;
CELDA ESCUINTLA IV CEVICHERIA BLANQUI (EESCGTE4);Punto;14.3082;-90.7809;;;;;#stylemap_tipo_sitio_roadm0;1;;ESCUINTLA;;4209;;
CELDA ESCUINTLA VI (EESCGTEV);Punto;14.30375;-90.76680556;;;;;#stylemap_tipo_sitio_roadm0;1;ESCUINTLA;;;4211;;
CELDA LA DEMOCRACIA ESCUINTLA (EDEMGTLE);Punto;14.22988889;-90.94827778;;;;;#stylemap_tipo_sitio_roadm0;1;;ESCUINTLA;;;;
LA DEMOCRACIA ESCUINTLA (EDEMGTDE);Punto;14.22888889;-90.94777778;;;;;#stylemap_tipo_sitio_roadm0;1;ESCUINTLA;;;;;
CELDA NUEVA CONCEPCION III (ENCOGTN3);Punto;14.19137222;-91.31033056;;;;;#stylemap_tipo_sitio_roadm0;1;;ESCUINTLA;;5627;;
CELDA CEIBA AMELIA (EGOMGTCA);Punto;14.15244444;-90.97036111;;;;;#stylemap_tipo_sitio_roadm0;1;ESCUINTLA;;;2235;;
CELDA SIPACATE (EGOMGTSP);Punto;13.92866667;-91.14891667;;;;;#stylemap_tipo_sitio_roadm0;1;ESCUINTLA;;;;;
CELDA LA GOMERA (EGOMGTLG);Punto;14.08472222;-91.055;;;;;#stylemap_tipo_sitio_roadm0;1;ESCUINTLA;;;;;
CELDA LA TROCHA VII (ENCOGTLT);Punto;14.0523;-91.346;;;;;#stylemap_tipo_sitio_roadm0;1;ESCUINTLA;;;3212;;
CELDA EL REPARO (ENCOGTER);Punto;14.1698;-91.2382;;;;;#stylemap_tipo_sitio_roadm0;1;ESCUINTLA;;;3508;;
CELDA SAN JOSE MOGOLLON (ENCOGTSJ);Punto;14.19058056;-91.26363889;;;;;#stylemap_tipo_sitio_roadm0;1;ESCUINTLA;;;2780;;
SIQUINALA (ESIQGTSI);Punto;14.30583333;-90.96611111;;;;;#stylemap_tipo_sitio_roadm0;1;;ESCUINTLA;;;;
SANTA LUCIA COTZUMALGUAPA (ESLCGTSL);Punto;14.3305;-91.02;;;;;#stylemap_tipo_sitio_roadm0;1;ESCUINTLA;;;2209;;
CELDA SIQUINALA (ESIQGTSQ);Punto;14.30302778;-90.95819444;;;;;#stylemap_tipo_sitio_roadm0;1;ESCUINTLA;;;2205;;
CELDA SIQUINALA CENTRO COUBICADO (ESIQGTSE);Punto;14.3043;-90.9683;;;;;#stylemap_tipo_sitio_roadm0;1;ESCUINTLA;;;3255;;
RIO BRAVO (MRBRGTRB);Punto;14.39861111;-91.32013889;;;;;#stylemap_tipo_sitio_roadm0;1;;ESCUINTLA;;2217;;
CELDA POCHUTA II (CPOCGTP2);Punto;14.5439;-91.088;;;;;#stylemap_tipo_sitio_roadm0;1;ESCUINTLA;;;1167;;
SAN LUCAS TOLIMAN (SSLTGTSL);Punto;14.6365;-91.1465;;;;;#stylemap_tipo_sitio_roadm0;1;ESCUINTLA;;;2330;;
CELDA COYOLATE (ENCOGTCO);Punto;14.3747;-91.1056;;;;;#stylemap_tipo_sitio_roadm0;1;ESCUINTLA;;;2213;;
CELDA CUYUTA (EMASGTCU);Punto;14.0925;-90.8819;;;;;#stylemap_tipo_sitio_roadm0;1;;ESCUINTLA;;2298;;
CELDA MASAGUA (EMASGTMS);Punto;14.1991;-90.8521;;;;;#stylemap_tipo_sitio_roadm0;1;ESCUINTLA;;;2265;;
CELDA PARCELAMIENTO LINARES (ESJOGTPL);Punto;13.9889;-90.826;;;;;#stylemap_tipo_sitio_roadm0;1;ESCUINTLA;;;2536;;
CELDA LINDAMAR (ESJOGTLM);Punto;13.9173;-90.893;;;;;#stylemap_tipo_sitio_roadm0;1;ESCUINTLA;;;;;
CELDA SANTA CECILIA ESCUINTLA (EESCGTSC);Punto;14.2935;-90.78761111;;;;;#stylemap_tipo_sitio_roadm0;1;ESCUINTLA;;;3352;;
CELDA ESCUINTLA III (EESCGTE3);Punto;14.3185;-90.78859722;;;;;#stylemap_tipo_sitio_roadm0;1;ESCUINTLA;;;2264;;
CELDA AQUA PARK (EESCGTAP);Punto;14.34527778;-90.76347222;;;;;#stylemap_tipo_sitio_roadm0;1;ESCUINTLA;;;2285;;
CELDA POCHUTA (CPOCGTPC);Punto;14.5491;-91.0907;;;;;#stylemap_tipo_sitio_roadm0;1;ESCUINTLA;;;3311;;
CELDA LIKIN I (ESJOGTL1);Punto;13.93333333;-90.77666667;;;;;#stylemap_tipo_sitio_roadm0;1;ESCUINTLA;;;2260;;
TAXISCO (OTAXGTTA);Punto;14.0703;-90.461;;;;;#stylemap_tipo_sitio_roadm0;1;ESCUINTLA;;;;;
CELDA JACARANDAS (ESCUINTLA II) (EESCGTJA);Punto;14.2859;-90.7744;;;;;#stylemap_tipo_sitio_roadm0;1;ESCUINTLA;;;2231;;
CELDA EL BRITO (EGUAGTBR);Punto;14.15694444;-90.67313889;;;;;#stylemap_tipo_sitio_roadm0;1;ESCUINTLA;;;4520;;
CELDA TECNO PARK (EMASGTTP);Punto;14.22763889;-90.73499444;;;;;#stylemap_tipo_sitio_roadm0;1;ESCUINTLA;;;2538;;
RIO SUL (ESC251)_XT (EESCGTRU);Punto;14.21711;-90.77011;;;;;#stylemap_tipo_sitio_roadm0;1;ESCUINTLA;;;6440;;
CELDA RIO SUL (EESCGTRS);Punto;14.21527778;-90.775;;;;;#stylemap_tipo_sitio_roadm0;1;ESCUINTLA;;;2204;;
CELDA SAN JUAN MIXTAN (EMASGTSJ);Punto;14.23071944;-90.82533056;;;;;#stylemap_tipo_sitio_roadm0;1;;ESCUINTLA;;;;
SANTIAGO ATITLAN (SSATGTSA);Punto;14.63826111;-91.23003611;;;;;#stylemap_tipo_sitio_roadm0;1;;ESCUINTLA;;2329;;
CELDA SAN LUCAS TOLIMAN (SSLTGTSU);Punto;14.63638889;-91.14652778;;;;;#stylemap_tipo_sitio_roadm0;1;ESCUINTLA;;;2330;;
CELDA TIERRA SANTA (SSLTGTTS);Punto;14.58038889;-91.12836111;;;;;#stylemap_tipo_sitio_roadm0;1;ESCUINTLA;;;4312;;
CELDA EL ARENAL ESCUINTLA POSTE 1 (EDEMGTAE);Punto;14.17596944;-90.96524722;;;;;#stylemap_tipo_sitio_roadm0;1;;ESCUINTLA;;2553;;
CELDA EL MANGO (EESCGTMA);Punto;14.29480556;-90.74777778;;;;;#stylemap_tipo_sitio_roadm0;1;ESCUINTLA;;;3737;;
CELDA LAS GOLONDRINAS (EESCGTGO);Punto;14.30504444;-90.77469167;;;;;#stylemap_tipo_sitio_roadm0;1;ESCUINTLA;;;2520;;
CELDA PALMA REAL ESCUINTLA (EESCGTPA);Punto;14.27393889;-90.79232778;;;;;#stylemap_tipo_sitio_roadm0;1;;ESCUINTLA;;4953;;
CELDA TERMINAL ESCUINTLA (EESCGTTE);Punto;14.29652778;-90.78588889;;;;;#stylemap_tipo_sitio_roadm0;1;;ESCUINTLA;;2522;;
CELDA SARITA ESCUINTLA (EESCGTSE);Punto;14.2935;-90.78209722;;;;;#stylemap_tipo_sitio_roadm0;1;ESCUINTLA;;;3253;;
CELDA SAN MAURICIO (MSDSGTSM);Punto;14.24188889;-91.46983333;;;;;#stylemap_tipo_sitio_roadm0;1;;ESCUINTLA;;2064;;
CELDA EL ARISCO (ETIQGTEA);Punto;14.29769444;-91.44213889;;;;;#stylemap_tipo_sitio_roadm0;1;ESCUINTLA;;;4519;;
CELDA TECOJATE (ENCOGTTE);Punto;13.9883;-91.35956667;;;;;#stylemap_tipo_sitio_roadm0;1;;ESCUINTLA;;2280;;
CELDA TIERRA LINDA COUBICADO (ESLCGTTI);Punto;14.3989;-91.1118;;;;;#stylemap_tipo_sitio_roadm0;1;;ESCUINTLA;;4901;;
CELDA MARIA LINDA (EGUAGTML);Punto;14.1148;-90.6445;;;;;#stylemap_tipo_sitio_roadm0;1;;ESCUINTLA;;1271;;
CELDA SEMILLERO (ETIQGTSE);Punto;14.06472222;-91.51491667;;;;;#stylemap_tipo_sitio_roadm0;1;;ESCUINTLA;;2293;;
CELDA LAS PLAYAS SANTA LUCIA COUBICADO (ESLCGTPS);Punto;14.18463889;-91.13391667;;;;;#stylemap_tipo_sitio_roadm0;1;;ESCUINTLA;;4958;;
CELDA SANTA LUCIA COTZUMALGUAPA III (ESLCGTL3);Punto;14.329;-91.0329;;;;;#stylemap_tipo_sitio_roadm0;1;;ESCUINTLA;;4369;;
CELDA EL BILBAO SANTA LUCIA COUBICADO (ESLCGTBS);Punto;14.33638056;-91.02056111;;;;;#stylemap_tipo_sitio_roadm0;1;;ESCUINTLA;;5699;;
CELDA MIRIAN (ESLCGTMI);Punto;14.30146389;-91.05331389;;;;;#stylemap_tipo_sitio_roadm0;1;;ESCUINTLA;;2759;;
CELDA LA BARRITA (ESJOGTBA);Punto;13.92043611;-90.91507222;;;;;#stylemap_tipo_sitio_roadm0;1;;ESCUINTLA;;2766;;
CELDA NUEVO TEXCUACO (EGOMGTNT);Punto;14.112;-91.06113889;;;;;#stylemap_tipo_sitio_roadm0;1;;ESCUINTLA;;4213;;
CELDA CRUCE DE CHAMPONA (IMORGTCC);Punto;15.59951944;-88.57086944;;;;;#stylemap_tipo_sitio_roadm0;1;;PUERTO BARRIOS;;5067;;
CELDA CASA BLANCA AGROCARIBE (IMORGTCB);Punto;15.5827;-88.5938;;;;;#stylemap_tipo_sitio_roadm0;1;PUERTO BARRIOS;;;1988;;
CELDA SENAHU (VSENGTSE);Punto;15.4157;-89.82959722;;;;;#stylemap_tipo_sitio_roadm0;1;;PUERTO BARRIOS;;3410;;
CELDA TELEMAN II (COUBICADO) (VPANGTT2);Punto;15.3017;-89.7258;;;;;#stylemap_tipo_sitio_roadm0;1;PUERTO BARRIOS;;;5252;;
CELDA RIO BLANCO IZABAL (IAMAGTRB);Punto;15.40602778;-89.00222222;;;;;#stylemap_tipo_sitio_roadm0;1;;PUERTO BARRIOS;;3756;;
CELDA SANTA ELENA MORALES (IMORGTSE);Punto;15.43341667;-88.95541667;;;;;#stylemap_tipo_sitio_roadm0;1;PUERTO BARRIOS;;;3474;;
CELDA LA CUMBRE SAN LUIS PETEN (PSLUGTCS);Punto;16.0748;-89.3498;;;;;#stylemap_tipo_sitio_roadm0;1;;PUERTO BARRIOS;;3673;;
CELDA CHACTE (PSLUGTCH);Punto;16.1031;-89.35955556;;;;;#stylemap_tipo_sitio_roadm0;1;PUERTO BARRIOS;;;1473;;
BUENOS AIRES (ILIVGTBA);Punto;15.55186111;-88.91277778;;;;;#stylemap_tipo_sitio_roadm0;1;;PUERTO BARRIOS;;1456;;
CELDA FRANCESES; CRUCE A RIO DULCE (IMORGTFR);Punto;15.5033;-88.8248;;;;;#stylemap_tipo_sitio_roadm0;1;PUERTO BARRIOS;;;3402;
CELDA MORALES III (HERMOSA PATRICIA) (IMORGTM3);Punto;15.4797;-88.8487;;;;;#stylemap_tipo_sitio_roadm0;1;PUERTO BARRIOS;;;3572;;
MORALES (IMORGTMO);Punto;15.4725;-88.83666667;;;;;#stylemap_tipo_sitio_roadm0;1;PUERTO BARRIOS;;;1415;;
CELDA EL ROSARIO (IMORGTER);Punto;15.5428;-88.83899722;;;;;#stylemap_tipo_sitio_roadm0;1;PUERTO BARRIOS;;;3408;;
CELDA HACIENDA LA PERLA (IMORGTHP);Punto;15.53277778;-88.74775;;;;;#stylemap_tipo_sitio_roadm0;1;PUERTO BARRIOS;;;3616;;
CELDA TUCURU COUBICADO (VTUCGTTI);Punto;15.29311111;-90.147;;;;;#stylemap_tipo_sitio_roadm0;1;;PUERTO BARRIOS;;5251;;
CELDA CARRETERA TUCURU LA TINTA (VTUCGTCT);Punto;15.29680556;-89.95844444;;;;;#stylemap_tipo_sitio_roadm0;1;PUERTO BARRIOS;;;;;
PRADERA PUERTO BARRIOS (TRD) (IPBAGTPP);Punto;15.69413889;-88.58798333;;;;;#stylemap_tipo_sitio_roadm0;1;;PUERTO BARRIOS;;9533;;
SANTO TOMAS DE CASTILLA (IPBAGTST);Punto;15.68969444;-88.61463889;;;;;#stylemap_tipo_sitio_roadm0;1;PUERTO BARRIOS;;;1418;;
PANZOS (VPANGTPA);Punto;15.401;-89.6456;;;;;#stylemap_tipo_sitio_roadm0;1;;PUERTO BARRIOS;;1328;;
CELDA TELEMAN (VPANGTTE);Punto;15.33769444;-89.74086111;;;;;#stylemap_tipo_sitio_roadm0;1;PUERTO BARRIOS;;;1338;;
EL ESTOR (IESTGTES);Punto;15.52194444;-89.34194444;;;;;#stylemap_tipo_sitio_roadm0;1;PUERTO BARRIOS;;;1440;;
CELDA PANZOS (VPANGTPN);Punto;15.401;-89.6456;;;;;#stylemap_tipo_sitio_roadm0;1;PUERTO BARRIOS;;;1328;;
MARISCOS (IAMAGTMA);Punto;15.4237;-89.0819;;;;;#stylemap_tipo_sitio_roadm0;1;;PUERTO BARRIOS;;1439;;
CELDA CRUCE A MARISCOS (IAMAGTCM);Punto;15.3933;-89.0274;;;;;#stylemap_tipo_sitio_roadm0;1;PUERTO BARRIOS;;;1455;;
CELDA PLAYA DORADA (IAMAGTPD);Punto;15.41525;-89.11052778;;;;;#stylemap_tipo_sitio_roadm0;1;PUERTO BARRIOS;;;3578;;
CELDA PLAN GRANDE (ILIVGTPG);Punto;15.8367;-88.7993;;;;;#stylemap_tipo_sitio_roadm0;1;;PUERTO BARRIOS;;1141;;
CELDA LIVINGSTON (ILIVGTLV);Punto;15.82497222;-88.75091667;;;;;#stylemap_tipo_sitio_roadm0;1;PUERTO BARRIOS;;;1420;;
CELDA AGROCARIBE (IMORGTAG);Punto;15.5795;-88.5568;;;;;#stylemap_tipo_sitio_roadm0;1;PUERTO BARRIOS;;;1293;;
CELDA SANTA CRUZ JALACTE (PSLUGTSC);Punto;16.20953333;-89.21297222;;;;;#stylemap_tipo_sitio_roadm0;1;;PUERTO BARRIOS;;1684;;
CELDA EL AGUACATE PETEN (PSLUGTAP);Punto;16.1526;-89.3231;;;;;#stylemap_tipo_sitio_roadm0;1;PUERTO BARRIOS;;;1683;;
CELDA LA COMPUERTA (PPOPGTLC);Punto;16.26361111;-89.2555;;;;;#stylemap_tipo_sitio_roadm0;1;PUERTO BARRIOS;;;;;
LA TINTA (VPANGTTI);Punto;15.3073;-89.88310278;;;;;#stylemap_tipo_sitio_roadm0;1;;PUERTO BARRIOS;;1464;;
CELDA ALDEA SALAC (VPANGTAS);Punto;15.3248;-89.812;;;;;#stylemap_tipo_sitio_roadm0;1;PUERTO BARRIOS;;;;;
PUERTO BARRIOS (IPBAGTPB);Punto;15.73055556;-88.59777778;;;;;#stylemap_tipo_sitio_ila;1;PUERTO BARRIOS;;;;;
CELDA PLAYITAS (IMORGTPL);Punto;15.34841667;-88.81861111;;;;;#stylemap_tipo_sitio_roadm0;1;PUERTO BARRIOS;;;;;
CELDA ENTRE RIOS (IPBAGTEI);Punto;15.63408333;-88.53605556;;;;;#stylemap_tipo_sitio_roadm0;1;PUERTO BARRIOS;;;1301;;
CELDA MORALES II (IMORGTM2);Punto;15.46402778;-88.83416667;;;;;#stylemap_tipo_sitio_roadm0;1;PUERTO BARRIOS;;;3468;;
CELDA PUERTO BARRIOS II (IPBAGTP2);Punto;15.7157;-88.5856;;;;;#stylemap_tipo_sitio_roadm0;1;;PUERTO BARRIOS;;1326;;
CELDA EL MITCH PUERTO BARRIOS (IPBAGTMP);Punto;15.70906944;-88.58193056;;;;;#stylemap_tipo_sitio_roadm0;1;PUERTO BARRIOS;;;5349;;
CELDA ZARCO CREEK (IMORGTZC);Punto;15.3853;-88.82250278;;;;;#stylemap_tipo_sitio_roadm0;1;PUERTO BARRIOS;;;4562;;
CELDA ROSARIO BANANERA (IMORGTRB);Punto;15.32691667;-88.86030556;;;;;#stylemap_tipo_sitio_roadm0;1;PUERTO BARRIOS;;;;;
CELDA TOTOPOSTE (IMORGTTO);Punto;15.39413889;-88.88633333;;;;;#stylemap_tipo_sitio_roadm0;1;PUERTO BARRIOS;;;4560;;
LIVINGSTONE (ILIVGTLI);Punto;15.825305;-88.74935;;;;;#stylemap_tipo_sitio_roadm0;1;PUERTO BARRIOS;;;;;
CELDA SANTA LUCIA JIQUITI (ILIVGTSL);Punto;15.8577;-89.1891;;;;;#stylemap_tipo_sitio_roadm0;1;;PUERTO BARRIOS;;;;
CELDA MODESTO MENDEZ (ILIVGTMM);Punto;15.8749;-89.2213;;;;;#stylemap_tipo_sitio_roadm0;1;PUERTO BARRIOS;;;1475;;
CELDA EL CINCHADO (IPBAGTEC);Punto;15.6191;-88.43127778;;;;;#stylemap_tipo_sitio_roadm0;1;PUERTO BARRIOS;;;;;
CELDA BUENA VISTA MIRAMAR (ILIVGTBV);Punto;15.8099;-88.7521;;;;;#stylemap_tipo_sitio_roadm0;1;PUERTO BARRIOS;;;3613;;
CELDA PUERTO BARRIOS III (IPBAGTPA);Punto;15.69863889;-88.58166667;;;;;#stylemap_tipo_sitio_roadm0;1;PUERTO BARRIOS;;;1495;;
MSAN DOMINGO JUARROS (IPBAGTMD);Punto;15.72713889;-88.59588333;;;;;#stylemap_tipo_sitio_roadm0;1;;PUERTO BARRIOS;;;;
MSAN LAS TORRES (IPBAGTMT);Punto;15.725825;-88.585175;;;;;#stylemap_tipo_sitio_roadm0;1;PUERTO BARRIOS;;;;;
CELDA LA TORTUGA (PSLUGTTO);Punto;16.08583333;-89.45888889;;;;;#stylemap_tipo_sitio_roadm0;1;;PUERTO BARRIOS;;2541;;
CELDA LA PIMIENTA (PSLUGTPI);Punto;16.0095;-89.66575;;;;;#stylemap_tipo_sitio_roadm0;1;PUERTO BARRIOS;;;2543;;
MSAN 20 CALLE (IPBAGTM2);Punto;15.72045;-88.59443889;;;;;#stylemap_tipo_sitio_roadm0;1;PUERTO BARRIOS;;;;;
MSAN JUSTO RUFINO BARRIOS (IPBAGTMJ);Punto;15.71855278;-88.59481111;;;;;#stylemap_tipo_sitio_roadm0;1;PUERTO BARRIOS;;;;;
MSAN HENRY STOCK (IPBAGTMH);Punto;15.72082222;-88.595625;;;;;#stylemap_tipo_sitio_roadm0;1;PUERTO BARRIOS;;;;;
RIO DULCE (ILIVGTRD);Punto;15.65722222;-89.00805556;;;;;#stylemap_tipo_sitio_roadm0;1;PUERTO BARRIOS;;;1419;;
CELDA CASTILLO DE SAN FELIPE (ILIVGTCA);Punto;15.6346;-89.0009;;;;;#stylemap_tipo_sitio_roadm0;1;PUERTO BARRIOS;;;;;
CELDA SAN ANTONIO SEJA (ILIVGTSN);Punto;15.6844;-89.04499722;;;;;#stylemap_tipo_sitio_roadm0;1;PUERTO BARRIOS;;;3406;;
CELDA TIJAX (ILIVGTTI);Punto;15.67222222;-89.00230556;;;;;#stylemap_tipo_sitio_roadm0;1;PUERTO BARRIOS;;;4588;;
POPTUN (PPOPGTPO);Punto;16.335;-89.42222222;;;;;#stylemap_tipo_sitio_ila;1;POPTUN;;;1430;;
CELDA LA BLANCA OCOS (NOCOGTLB);Punto;14.58263889;-92.13630556;;;;;#stylemap_tipo_sitio_roadm0;1;;TECUN UMAN;;3518;;
CELDA LOS LIMONES OCOS (NOCOGTLL);Punto;14.5894;-92.175;;;;;#stylemap_tipo_sitio_roadm0;1;TECUN UMAN;;;;;
CELDA OCOS (NOCOGTOO);Punto;14.50925;-92.19008333;;;;;#stylemap_tipo_sitio_roadm0;1;;TECUN UMAN;;2251;;
TECUN UMAN (NAYUGTTU);Punto;14.67638889;-92.13891667;;;;;#stylemap_tipo_sitio_ila;1;TECUN UMAN;;;2242;;
CELDA CHIQUIRINES (NOCOGTCI);Punto;14.56630556;-92.05444444;;;;;#stylemap_tipo_sitio_roadm0;1;TECUN UMAN;;;;;
CELDA CRUCE A TECUN UMAN Y MALACATAN (NAYUGTCA);Punto;14.7106;-92.1014;;;;;#stylemap_tipo_sitio_roadm0;1;;TECUN UMAN;;2278;;
CELDA SANTA MARIA EL NARANJO (QCOAGTSM);Punto;14.68331944;-92.06119722;;;;;#stylemap_tipo_sitio_roadm0;1;TECUN UMAN;;;4747;;
COMUNIDAD MANZANALES (ASSAGTCM);Punto;14.64855833;-90.70422778;;;;;#stylemap_tipo_sitio_roadm0;1;;SAN LUCAS SACATEPEQUEZ;;;;
SAN LUCAS SACATEPEQUEZ (ASLSGTSL);Punto;14.60888889;-90.65555556;;;;;#stylemap_tipo_sitio_ila;1;SAN LUCAS SACATEPEQUEZ;;;;;
CELDA SAN BARTOLOME MILPAS ALTAS (ASBMGTSA);Punto;14.6083;-90.67040278;;;;;#stylemap_tipo_sitio_roadm0;1;;SAN LUCAS SACATEPEQUEZ;;2874;;
CELDA JARDINES DE SANTIAGO (ASSAGTJS);Punto;14.62525;-90.66244444;;;;;#stylemap_tipo_sitio_roadm0;1;;SAN LUCAS SACATEPEQUEZ;;3514;;
CELDA SANTA LUCIA MILPAS ALTAS (ASLMGTSU);Punto;14.57693889;-90.67998333;;;;;#stylemap_tipo_sitio_roadm0;1;;SAN LUCAS SACATEPEQUEZ;;2301;;
CELDA PARQUE FLORENCIA (ASLMGTPF);Punto;14.57;-90.67105556;;;;;#stylemap_tipo_sitio_roadm0;1;SAN LUCAS SACATEPEQUEZ;;;4551;;
CELDA SANTO TOMAS MILPAS ALTAS (ASLMGTSO);Punto;14.55208333;-90.67263889;;;;;#stylemap_tipo_sitio_roadm0;1;SAN LUCAS SACATEPEQUEZ;;;3642;;
SANTIAGO SACATEPEQUEZ (ASSAGTSA);Punto;14.63628056;-90.67416111;;;;;#stylemap_tipo_sitio_roadm0;1;;SAN LUCAS SACATEPEQUEZ;;2307;;
CELDA FINCA LA LABOR (BARCENAS -  ANTIGUA) (ASLMGTFL);Punto;14.57822222;-90.65291667;;;;;#stylemap_tipo_sitio_roadm0;1;;SAN LUCAS SACATEPEQUEZ;;2345;;
CELDA SAN ANDRES ITZAPA (CSAIGTSN);Punto;14.6228;-90.8353;;;;;#stylemap_tipo_sitio_roadm0;1;SAN LUCAS SACATEPEQUEZ;;;2341;;
CELDA LABOR DE CASTILLA (GMIXGTLT);Punto;14.6063;-90.6331;;;;;#stylemap_tipo_sitio_roadm0;1;SAN LUCAS SACATEPEQUEZ;;;2381;;
CERRO EL JARDIN (ASSAGTEJ);Punto;14.63583333;-90.64444444;;;;;#stylemap_tipo_sitio_roadm0;1;SAN LUCAS SACATEPEQUEZ;;;4579;;
CELDA LA LIBERTAD (ASLMGTLL);Punto;14.59155556;-90.66544444;;;;;#stylemap_tipo_sitio_roadm0;1;SAN LUCAS SACATEPEQUEZ;;;2680;;
SAN ANDRES ITZAPA (CSAIGTSA);Punto;14.6222;-90.83639972;;;;;#stylemap_tipo_sitio_roadm0;1;ANTIGUA GUATEMALA;;;;;
CELDA LOS APOSENTOS (CHMLGTLA);Punto;14.63091667;-90.81405556;;;;;#stylemap_tipo_sitio_roadm0;1;SAN LUCAS SACATEPEQUEZ;;;3305;;
REP_ CERRO BOBI XT (HSMIGTRC);Punto;15.80561;-91.47743;;;;;#stylemap_tipo_sitio_roadm0;1;;HUEHUETENANGO;;;;
CERRO LA CUMBRE (HSMIGTLC);Punto;15.80611111;-91.47722222;;;;;#stylemap_tipo_sitio_roadm0;1;HUEHUETENANGO;;;2453;;
SANTA EULALIA (HSEUGTSE);Punto;15.7381;-91.4608;;;;;#stylemap_tipo_sitio_roadm0;1;HUEHUETENANGO;;;2444;;
CELDA CHICAMAN (KCHCGTCI);Punto;15.3493;-90.80280278;;;;;#stylemap_tipo_sitio_roadm0;1;;HUEHUETENANGO;;2445;;
USPANTAN (KUSPGTUS);Punto;15.3475;-90.87277778;;;;;#stylemap_tipo_sitio_roadm0;1;HUEHUETENANGO;;;2452;;
CELDA PACHALUM (KPACGTPC);Punto;14.9267;-90.66680278;;;;;#stylemap_tipo_sitio_roadm0;1;;SANTA CRUZ DEL QUICHE;;;;
JOYABAJ (KJOYGTJO);Punto;14.99194444;-90.80694444;;;;;#stylemap_tipo_sitio_roadm0;1;SANTA CRUZ DEL QUICHE;;;2406;;
PATZITE (KPATGTPA);Punto;14.9652;-91.20860278;;;;;#stylemap_tipo_sitio_roadm0;1;;SANTA CRUZ DEL QUICHE;;2402;;
CELDA SANTA MARIA CHIQUIMULA (TSMCGTSM);Punto;15.0238;-91.3427;;;;;#stylemap_tipo_sitio_roadm0;1;SANTA CRUZ DEL QUICHE;;;2469;;
CELDA CHICALTE (KPATGTCH);Punto;14.97716667;-91.16788889;;;;;#stylemap_tipo_sitio_roadm0;1;SANTA CRUZ DEL QUICHE;;;;;
CELDA EL RANCHO TOTONICAPAN (TSMCGTER);Punto;15.0089;-91.3878;;;;;#stylemap_tipo_sitio_roadm0;1;SANTA CRUZ DEL QUICHE;;;4528;;
QUICHE_XT (KSCQGTQU);Punto;15.0291008;-91.1513093;;;;;#stylemap_tipo_sitio_roadm0;1;;SANTA CRUZ DEL QUICHE;;6511;;
SANTA CRUZ DEL QUICHE (KSCQGTSC);Punto;15.0318;-91.1476;;;;;#stylemap_tipo_sitio_ila;1;SANTA CRUZ DEL QUICHE;;;2403;;
CELDA ZACUALPA - CHINIQUE II (KCHHGTZC);Punto;15.01527778;-90.98991667;;;;;#stylemap_tipo_sitio_roadm0;1;;SANTA CRUZ DEL QUICHE;;3682;;
ZACUALPA (KZACGTZA);Punto;15.02611111;-90.87944444;;;;;#stylemap_tipo_sitio_roadm0;1;SANTA CRUZ DEL QUICHE;;;2405;;
QUETZALTENANGO (QTZLGTXC);Punto;14.83444444;-91.52111111;;;;;#stylemap_tipo_sitio_ila;1;;RCT;;2313;;
CELDA QUETZALTENANGO X (SALIDA A ALMOLONGA) (QTZLGTQS);Punto;14.82636111;-91.51311111;;;;;#stylemap_tipo_sitio_roadm0;1;QUETZALTENANGO;;;2387;;
CELDA QUETZALTENANGO VIII (LLANOS DEL PINAL) - PALAJUNOJ (QTZLGTQ8);Punto;14.79481111;-91.54255;;;;;#stylemap_tipo_sitio_roadm0;1;;QUETZALTENANGO;;2357;;
CELDA PERIFERICO XELA COUBICADO (QTZLGTPX);Punto;14.86542778;-91.48321944;;;;;#stylemap_tipo_sitio_roadm0;1;;QUETZALTENANGO;;2011;;
CELDA QUETZALTENANGO IV (QTZLGTQ4);Punto;14.84121944;-91.53591111;;;;;#stylemap_tipo_sitio_roadm0;1;QUETZALTENANGO;;;2373;;
CELDA AEREOPUERTO QUETZALTENANGO (QTZLGTAQ);Punto;14.86655556;-91.49830556;;;;;#stylemap_tipo_sitio_roadm0;1;;QUETZALTENANGO;;1500;;
CELDA SAN JOSE CHIQUILAJA (QTZLGTSS);Punto;14.87666944;-91.48455;;;;;#stylemap_tipo_sitio_roadm0;1;QUETZALTENANGO;;;5016;;
COLOMBA COSTA CUCA (QCOLGTCO);Punto;14.7068;-91.7318;;;;;#stylemap_tipo_sitio_roadm0;1;;COATEPEQUE;;2238;;
CELDA LAS MERCEDES (QCOLGTLM);Punto;14.70694444;-91.75802778;;;;;#stylemap_tipo_sitio_roadm0;1;COATEPEQUE;;;4593;;
COATEPEQUE (QCOAGTCO);Punto;14.70277778;-91.86138889;;;;;#stylemap_tipo_sitio_ila;1;COATEPEQUE;;;2240;;
CELDA COATEPEQUE II (QCOAGTC2);Punto;14.69805556;-91.87;;;;;#stylemap_tipo_sitio_roadm0;1;;COATEPEQUE;;2244;;
CELDA NUEVO CHUATUJ (QCOAGTNH);Punto;14.67575;-91.87983333;;;;;#stylemap_tipo_sitio_roadm0;1;COATEPEQUE;;;3202;;
EL QUETZAL (NQUEGTQU);Punto;14.7678;-91.818;;;;;#stylemap_tipo_sitio_roadm0;1;;COATEPEQUE;;2250;;
LAS PALMAS (QCOAGTPA);Punto;14.70138889;-91.99583333;;;;;#stylemap_tipo_sitio_roadm0;1;;COATEPEQUE;;;;
CELDA LAS MARAVILLAS (QCOAGTLM);Punto;14.69522222;-91.94741667;;;;;#stylemap_tipo_sitio_roadm0;1;COATEPEQUE;;;2237;;
CELDA MIRANDIA (QCOAGTMI);Punto;14.7091;-92.01426944;;;;;#stylemap_tipo_sitio_roadm0;1;COATEPEQUE;;;4708;;
PAJAPITA (NPAJGTPA);Punto;14.72194444;-92.035;;;;;#stylemap_tipo_sitio_roadm0;1;MALACATAN;;;2241;;
CELDA SAN RAFAEL PACAYA II (QCOAGTSA);Punto;14.62361111;-91.93347222;;;;;#stylemap_tipo_sitio_roadm0;1;;COATEPEQUE;;3206;;
GENOVA (QGENGTGE);Punto;14.62238889;-91.83608889;;;;;#stylemap_tipo_sitio_roadm0;1;;COATEPEQUE;;2258;;
SAN MIGUELITO (QGENGTSM);Punto;14.5791;-91.80570278;;;;;#stylemap_tipo_sitio_roadm0;1;COATEPEQUE;;;3526;;
CELDA FLORES COSTA CUCA (QFCCGTFO);Punto;14.6591;-91.82599722;;;;;#stylemap_tipo_sitio_roadm0;1;COATEPEQUE;;;2266;;
GENOVA_XT_SBA (QGENGTGX);Punto;14.62082331;-91.83231487;;;;;#stylemap_tipo_sitio_roadm0;1;COATEPEQUE;;;4868;;
CELDA FINCA XELAJU COSTA CUCA (QFCCGTFX);Punto;14.65295556;-91.82895278;;;;;#stylemap_tipo_sitio_roadm0;1;;COATEPEQUE;;3346;;
IGLESIA IGSUU (QCOAGTII);Punto;14.70111111;-91.86361111;;;;;#stylemap_tipo_sitio_roadm0;1;;COATEPEQUE;;;;
BARRIO LAS CASAS (QCOAGTBC);Punto;14.70416667;-91.85888889;;;;;#stylemap_tipo_sitio_roadm0;1;COATEPEQUE;;;;;
HOSPITAL NACIONAL DE COATEPEQUE (QCOAGTHN);Punto;14.69888889;-91.87055556;;;;;#stylemap_tipo_sitio_roadm0;1;;COATEPEQUE;;;;
BARRIO SAN FRANCISCO (QCOAGTBS);Punto;14.69833333;-91.86361111;;;;;#stylemap_tipo_sitio_roadm0;1;COATEPEQUE;;;;;
ESCUELA DE PARVULOS EL JARDIN (QCOAGTEP);Punto;14.70555556;-91.86694444;;;;;#stylemap_tipo_sitio_roadm0;1;COATEPEQUE;;;;;
LA TERMINAL (QCOAGTTE);Punto;14.70555556;-91.87;;;;;#stylemap_tipo_sitio_roadm0;1;COATEPEQUE;;;;;
LA UNION COATEPEQUE_XT (QCOAGTUO);Punto;14.69884;-91.91361;;;;;#stylemap_tipo_sitio_roadm0;1;;COATEPEQUE;;5207;;
CELDA LA UNION COATEPEQUE (QCOAGTLU);Punto;14.70388889;-91.90358333;;;;;#stylemap_tipo_sitio_roadm0;1;COATEPEQUE;;;3201;;
CELDA SAN JOSE IXTAL (NREFGTSJ);Punto;14.74027778;-91.89677778;;;;;#stylemap_tipo_sitio_roadm0;1;;COATEPEQUE;;3209;;
CELDA COATEPEQUE ORIENTE (T1-341) COUBICADO (QCOAGTCR);Punto;14.70033611;-91.85793333;;;;;#stylemap_tipo_sitio_roadm0;1;;COATEPEQUE;;5541;;
CELDA SAN ISIDRO COATEPEQUE (QCOAGTSC);Punto;14.71280556;-91.87658333;;;;;#stylemap_tipo_sitio_roadm0;1;;COATEPEQUE;;3524;;
COLONIA SAN ANTONIO (QCOAGTCS);Punto;14.70305556;-91.84805556;;;;;#stylemap_tipo_sitio_roadm0;1;;COATEPEQUE;;;;
CELDA SINTANA (NQUEGTSI);Punto;14.72491667;-91.86977778;;;;;#stylemap_tipo_sitio_roadm0;1;;COATEPEQUE;;3207;;
CELDA FINCA FLORENCIA (QCOLGTFF);Punto;14.69716667;-91.79275;;;;;#stylemap_tipo_sitio_roadm0;1;;COATEPEQUE;;2236;;
CELDA XAB Y FINCA FLORENCIA (QCOLGTXI);Punto;14.6564;-91.7728;;;;;#stylemap_tipo_sitio_roadm0;1;COATEPEQUE;;;4206;;
CELDA FINCA EL CARMEN (QGENGTEC);Punto;14.61755556;-91.76652778;;;;;#stylemap_tipo_sitio_roadm0;1;COATEPEQUE;;;;;
CELDA COATEPEQUE Y FINCA FLORENCIA (QCOAGTCI);Punto;14.69616667;-91.83752778;;;;;#stylemap_tipo_sitio_roadm0;1;;COATEPEQUE;;2290;;
CERRO EL PARAISO (QCOLGTEP);Punto;14.71444444;-91.76444444;;;;;#stylemap_tipo_sitio_roadm0;1;;COATEPEQUE;;9416;;
CELDA LA REFORMA (NREFGTLR);Punto;14.79994444;-91.82016667;;;;;#stylemap_tipo_sitio_roadm0;1;COATEPEQUE;;;;;
CELDA NUEVO PROGRESO (NNPRGTNR);Punto;14.7943;-91.919;;;;;#stylemap_tipo_sitio_roadm0;1;;COATEPEQUE;;;;
SAN CRISTOBAL VERAPAZ (VSCVGTSC);Punto;15.36472222;-90.47916667;;;;;#stylemap_tipo_sitio_roadm0;1;;COBAN;;;;
CERRO CHIKUT (VSCVGTCH);Punto;15.39361111;-90.56388889;;;;;#stylemap_tipo_sitio_roadm0;1;COBAN;;;9540;;
COBAN (VCOBGTCO);Punto;15.46972222;-90.37388889;;;;;#stylemap_tipo_sitio_ila;1;COBAN;;;5310;;
SANTA CRUZ VERAPAZ (VSCRGTSC);Punto;15.3723;-90.42859722;;;;;#stylemap_tipo_sitio_roadm0;1;COBAN;;;1316;;
CELDA TUCANJA (VSCVGTTU);Punto;15.37097222;-90.47469444;;;;;#stylemap_tipo_sitio_roadm0;1;COBAN;;;1962;;
CELDA SAN CRISTOBAL VERAPAZ (VSCVGTSV);Punto;15.36258333;-90.48338889;;;;;#stylemap_tipo_sitio_roadm0;1;COBAN;;;1337;;
PLAYA GRANDE (KUSPGTPG);Punto;15.93055556;-90.73888889;;;;;#stylemap_tipo_sitio_roadm0;1;COBAN;;;2427;;
PASIVO FRAY BARTOLOME (VFBCGTPF);Punto;15.81527778;-89.87333333;;;;;#stylemap_tipo_sitio_roadm0;1;;COBAN;;1435;;
FRAY BARTOLOME DE LAS CASAS (VFBCGTFB);Punto;15.81083333;-89.87611111;;;;;#stylemap_tipo_sitio_roadm0;1;COBAN;;;9502;;
RAXRUJA (VCHIGTRA);Punto;15.8647;-90.04060278;;;;;#stylemap_tipo_sitio_roadm0;1;COBAN;;;1445;;
HIDROELECTRICA RENACE 2_XT (VSPCGTHE);Punto;15.497069;-90.174125;;;;;#stylemap_tipo_sitio_roadm0;1;;COBAN;;6493;;
TACTIC (VTACGTTA);Punto;15.3239;-90.3507;;;;;#stylemap_tipo_sitio_roadm0;1;COBAN;;;1431;;
CELDA CHIQUIBUL (VCHIGTCQ);Punto;15.93355556;-90.52888889;;;;;#stylemap_tipo_sitio_roadm0;1;COBAN;;;1552;;
CELDA PINARES CAHABON (VCAHGTPC);Punto;15.54185833;-89.86620833;;;;;#stylemap_tipo_sitio_roadm0;1;;COBAN;;;;
CELDA SESIPCHE (VLANGTSE);Punto;15.63311111;-89.95111111;;;;;#stylemap_tipo_sitio_roadm0;1;COBAN;;;5254;;
TIVOLI (GNCYGTAK);Punto;14.60882222;-90.51547222;;;;;#stylemap_tipo_sitio_ila;1;;TIVOLI;;1131-5257;;
TIVOLI (TIV-TLG-);Punto;14.60882222;-90.51547222;;;;;#stylemap_tipo_sitio_roadm0;1;TIVOLI;;;;;
AZACUALPILLA (GPALGTAZ);Punto;14.7235;-90.36309722;;;;;#stylemap_tipo_sitio_roadm0;1;;LOURDES;;;;
LLANO LARGO (GNCYGTLL);Punto;14.68997222;-90.39999722;;;;;#stylemap_tipo_sitio_roadm0;1;LOURDES;;;1202;;
CRISTO REY (GSCPGTCR);Punto;14.57088889;-90.44518611;;;;;#stylemap_tipo_sitio_roadm0;1;;DON JUSTO;;;;
DON JUSTO (GSCPGTDJ);Punto;14.53811111;-90.45752778;;;;;#stylemap_tipo_sitio_ila;1;DON JUSTO;;;1112;;
CELDA SAJCAVILLA (GSJSGTSA);Punto;14.7059;-90.621;;;;;#stylemap_tipo_sitio_roadm0;1;;MONTE VERDE;;2160;;
SAN JUAN SACATEPEQUEZ (GSJSGTSJ);Punto;14.71863889;-90.64294444;;;;;#stylemap_tipo_sitio_roadm0;1;MONTE VERDE;;;2368;;
CELDA ALDEA CHITOL (GSJSGTAC);Punto;14.70678889;-90.63766111;;;;;#stylemap_tipo_sitio_roadm0;1;MONTE VERDE;;;4115-4116;;
SAN PEDRO - SANTO DOMINGO XENACOJ_XT_TR (GSJSGTSD);Punto;14.6894;-90.6689;;;;;#stylemap_tipo_sitio_roadm0;1;;MONTE VERDE;;4269;;
CELDA SAN PEDRO SACATEPEQUEZ (GSPSGTPA);Punto;14.68666667;-90.64027778;;;;;#stylemap_tipo_sitio_roadm0;1;MONTE VERDE;;;2370;;
MIXCO 2 (GUA040)_XT_SBA (GMIXGTI2);Punto;14.6296;-90.6004;;;;;#stylemap_tipo_sitio_roadm0;1;;MONTE VERDE;;3941;;
MIXCO (GMIXGTMI);Punto;14.62916667;-90.60888889;;;;;#stylemap_tipo_sitio_roadm0;1;MONTE VERDE;;;2132;;
CELDA CRUZ BLANCA (GSJSGTCB);Punto;14.72830556;-90.66822222;;;;;#stylemap_tipo_sitio_roadm0;1;;MONTE VERDE;;3713;;
CELDA GRANADOS (BGRAGTGA);Punto;14.91205556;-90.5375;;;;;#stylemap_tipo_sitio_roadm0;1;;MONTE VERDE;;3423;;
CELDA CHUARRANCHO (GCHUGTCU);Punto;14.81719444;-90.52816667;;;;;#stylemap_tipo_sitio_roadm0;1;MONTE VERDE;;;2481;;
CELDA MIRALVALLE I (GMIXGTM1);Punto;14.61605833;-90.62158889;;;;;#stylemap_tipo_sitio_roadm0;1;;MONTE VERDE;;2580;;
CELDA MIRALVALLE II (GMIXGTA2);Punto;14.610325;-90.62337222;;;;;#stylemap_tipo_sitio_roadm0;1;MONTE VERDE;;;2578;;
CELDA EL PERIODISTA II (GMIXGTEP);Punto;14.63102778;-90.58335556;;;;;#stylemap_tipo_sitio_roadm0;1;;MONTE VERDE;;;;
MOLINO DE LAS FLORES (GMIXGTMF);Punto;14.63477778;-90.59244444;;;;;#stylemap_tipo_sitio_roadm0;1;MONTE VERDE;;;2091;;
MONTE VERDE (GMIXGTMV);Punto;14.64611111;-90.58138889;;;;;#stylemap_tipo_sitio_ila;1;RCT;;;2024;;
LAS HOJARASCAS (GMIXGTHO);Punto;14.62579444;-90.60729167;;;;;#stylemap_tipo_sitio_roadm0;1;MONTE VERDE;;;;;
CELDA CABAÑA SUIZA (GMIXGTCZ);Punto;14.61855556;-90.61563889;;;;;#stylemap_tipo_sitio_roadm0;1;MONTE VERDE;;;2007;;
MSAN ENTRADA A SAN JACINTO (GMIXGTMJ);Punto;14.62430833;-90.60548333;;;;;#stylemap_tipo_sitio_roadm0;1;MONTE VERDE;;;;;
CELDA LOS CELAJES (MIXCO II) (GMIXGTCJ);Punto;14.63266667;-90.61275;;;;;#stylemap_tipo_sitio_roadm0;1;MONTE VERDE;;;3540;;
NIMAJAY (GMIXGTNI);Punto;14.64663889;-90.60283333;;;;;#stylemap_tipo_sitio_roadm0;1;MONTE VERDE;;;;;
EL ENCINAL (GMIXGTEN);Punto;14.65472222;-90.61916667;;;;;#stylemap_tipo_sitio_roadm0;1;;MONTE VERDE;;;;
SAN RAYMUNDO (GSRAGTSR);Punto;14.7665;-90.5963;;;;;#stylemap_tipo_sitio_roadm0;1;MONTE VERDE;;;2442;;
CELDA CHUARRANCHO II (GCHUGTC2);Punto;14.8296;-90.4972;;;;;#stylemap_tipo_sitio_roadm0;1;MONTE VERDE;;;4511;;
CELDA PAMOCA (GSRAGTPA);Punto;14.78372222;-90.58330556;;;;;#stylemap_tipo_sitio_roadm0;1;;MONTE VERDE;;3234;;
MSAN SAN IGNACIO (GMIXGTAI);Punto;14.64275833;-90.595675;;;;;#stylemap_tipo_sitio_roadm0;1;MONTE VERDE;;;;;
MSAN COLONIA PABLO VI (GMIXGTM6);Punto;14.64108611;-90.59443056;;;;;#stylemap_tipo_sitio_roadm0;1;MONTE VERDE;;;;;
(CC_RCT_G);Punto;16.09622;-88.561347;;;;;#stylemap_tipo_sitio_roadm0;1;RCT;;;;;
CELDA CONDADO SAN JUAN (GSJSGTCS);Punto;14.70454444;-90.56439444;;;;;#stylemap_tipo_sitio_roadm0;1;;MONTE VERDE;;2753;;
CELDA CIUDAD QUETZAL (GSJSGTCU);Punto;14.68975;-90.57716667;;;;;#stylemap_tipo_sitio_roadm0;1;MONTE VERDE;;;;;
SAN PEDRO SACATEPEQUEZ (GSPSGTPS);Punto;14.6868;-90.64299722;;;;;#stylemap_tipo_sitio_roadm0;1;;MONTE VERDE;;;;
SAN PEDRO SACATEPEQUEZ GUATEMALA (GUA109)_XT (GSPSGTSE);Punto;14.6856298;-90.6370671;;;;;#stylemap_tipo_sitio_roadm0;1;MONTE VERDE;;;3556;;
CELDA ALDEA MONTUFAR (GSJSGTAM);Punto;14.79827778;-90.6445;;;;;#stylemap_tipo_sitio_roadm0;1;MONTE VERDE;;;2480;;
CELDA LLANO DE LA VIRGEN (GSRAGTLV);Punto;14.78225;-90.59877778;;;;;#stylemap_tipo_sitio_roadm0;1;MONTE VERDE;;;3235;;
CIUDAD QUETZAL (GSJSGTCQ);Punto;14.6898;-90.57689722;;;;;#stylemap_tipo_sitio_roadm0;1;MONTE VERDE;;;2130;;
CELDA CARRANZA (GSJSGTCA);Punto;14.68872222;-90.56600556;;;;;#stylemap_tipo_sitio_roadm0;1;MONTE VERDE;;;2672;;
(GSJGTC2N);Punto;16.09622;-88.561347;;;;;#stylemap_tipo_sitio_roadm0;1;MONTE VERDE;;;;;
CIUDAD SATELITE (GMIXGTCS);Punto;14.5829;-90.60019722;;;;;#stylemap_tipo_sitio_roadm0;1;EL CARMEN;;;2117;;
CELDA NUEVA MONTSERRAT II (GMIXGTNO);Punto;14.6384;-90.57811111;;;;;#stylemap_tipo_sitio_roadm0;1;MONTE VERDE;;;2075;;
NODO EL PAJON_XT (GSCPGTNA);Punto;14.549833;-90.4348;;;;;#stylemap_tipo_sitio_roadm0;1;;DON JUSTO;;4388;;
CELDA LAS ANONAS FRAIJANES (GFRAGTAF);Punto;14.5269;-90.41560278;;;;;#stylemap_tipo_sitio_roadm0;1;;DON JUSTO;;2548;;
CELDA SAN JOSE PINULA II (GSJPGTSO);Punto;14.54247222;-90.41147222;;;;;#stylemap_tipo_sitio_roadm0;1;DON JUSTO;;;4556;;
SAN JOSE PINULA (GSJPGTSJ);Punto;14.5486;-90.4161;;;;;#stylemap_tipo_sitio_roadm0;1;;DON JUSTO;;1234;;
SAN JOSE PINULA (GUA102)_XT (GSJPGTSU);Punto;14.5454;-90.4223;;;;;#stylemap_tipo_sitio_roadm0;1;;DON JUSTO;;6284;;
CELDA ALDEA EL CERRITO (GFRAGTAC);Punto;14.4315;-90.45069444;;;;;#stylemap_tipo_sitio_roadm0;1;;DON JUSTO;;3794;;
CELDA FRAIJANES II (GFRAGTF2);Punto;14.45638889;-90.441;;;;;#stylemap_tipo_sitio_roadm0;1;DON JUSTO;;;1536;;
KILOMETRO 25.5 (GFRAGTK2);Punto;14.47043056;-90.48242222;;;;;#stylemap_tipo_sitio_ila;1;;DON JUSTO;;9086;;
CELDA LAS FLORES COUBICADO (GFRAGTFO);Punto;14.461;-90.48200278;;;;;#stylemap_tipo_sitio_roadm0;1;DON JUSTO;;;3969;;
RESIDENCIALES SAN JOSE (GSJPGTRS);Punto;14.53070556;-90.40988611;;;;;#stylemap_tipo_sitio_roadm0;1;;DON JUSTO;;9047;;
CELDA SANTO DOMINGO (GSCPGTSO);Punto;14.57080556;-90.44869444;;;;;#stylemap_tipo_sitio_roadm0;1;;DON JUSTO;;4514;;
CELDA PIEDRA PARADA (GSCPGTIP);Punto;14.5839;-90.4486;;;;;#stylemap_tipo_sitio_roadm0;1;DON JUSTO;;;1068;;
LA SIERRA DON JUSTO (GSCPGTSD);Punto;14.55291667;-90.46666389;;;;;#stylemap_tipo_sitio_roadm0;1;;DON JUSTO;;9053;;
VILA VERDE (GSCPGTVV);Punto;14.51160833;-90.46509722;;;;;#stylemap_tipo_sitio_roadm0;1;;DON JUSTO;;9111;;
PINABETES (GSJPGTPI);Punto;14.54315;-90.42820556;;;;;#stylemap_tipo_sitio_roadm0;1;;DON JUSTO;;;;
BOSQUE DE LAS LUCES (GSCPGTBL);Punto;14.56413889;-90.37452778;;;;;#stylemap_tipo_sitio_roadm0;1;;DON JUSTO;;9070;;
CENTRO CORPORATIVO MUXBAL (GSCPGTCC);Punto;14.56132222;-90.47816667;;;;;#stylemap_tipo_sitio_roadm0;1;DON JUSTO;;;;;
SANTIAGO DE COMPOSTELA (GFRAGTSC);Punto;14.51923056;-90.47196389;;;;;#stylemap_tipo_sitio_roadm0;1;;DON JUSTO;;;;
RESIDENCIAL CASA Y CAMPO (GFRAGTRC);Punto;14.48788611;-90.48410278;;;;;#stylemap_tipo_sitio_roadm0;1;DON JUSTO;;;;;
PAVON_XT_SBA (GFRAGTPA);Punto;14.51723;-90.4366;;;;;#stylemap_tipo_sitio_roadm0;1;DON JUSTO;;;6232;;
CRISTO REY XT (GSCPGTCI);Punto;14.5708979;-90.4484575;;;;;#stylemap_tipo_sitio_roadm0;1;DON JUSTO;;;;;
CELDA MUXBAL (GSCPGTMX);Punto;14.56138889;-90.4785;;;;;#stylemap_tipo_sitio_roadm0;1;DON JUSTO;;;1045;;
CELDA CONDADO CONCEPCION (GSCPGTCO);Punto;14.55206667;-90.45266667;;;;;#stylemap_tipo_sitio_roadm0;1;DON JUSTO;;;1061;;
CELDA MOTOTRACK I CIUDAD DE DIOS COUBICADO (GVCAGTM1);Punto;14.51087222;-90.48358611;;;;;#stylemap_tipo_sitio_roadm0;1;;DON JUSTO;;5431;;
CELDA CUMBRES DE SAN NICOLAS (GVCAGTCS);Punto;14.50822222;-90.48163889;;;;;#stylemap_tipo_sitio_roadm0;1;DON JUSTO;;;1233;;
CELDA EL MANZANO LA LIBERTAD (GSCPGTML);Punto;14.55528056;-90.44636111;;;;;#stylemap_tipo_sitio_roadm0;1;DON JUSTO;;;5484;;
CELDA MONTE CRISTO SAN JOSE PINULA (GSJPGTMC);Punto;14.55733333;-90.40111111;;;;;#stylemap_tipo_sitio_roadm0;1;DON JUSTO;;;1719;;
CONCEPCION PINULA_XT_SBA (GSJPGTCI);Punto;14.51363;-90.35313;;;;;#stylemap_tipo_sitio_roadm0;1;DON JUSTO;;;6168;;
CELDA RESIDENCIALES SAN CARLOS COUBICADO (GVCAGTRS);Punto;14.48362778;-90.48765833;;;;;#stylemap_tipo_sitio_roadm0;1;;DON JUSTO;;3491;;
CELDA EL PAJON (GSCPGTPJ);Punto;14.55938889;-90.43619444;;;;;#stylemap_tipo_sitio_roadm0;1;DON JUSTO;;;4526;;
CELDA FINCA ESTANZUELA (GVCAGTFE);Punto;14.43505556;-90.51430556;;;;;#stylemap_tipo_sitio_roadm0;1;;DON JUSTO;;;;
CELDA SANTA ELENA BARILLAS (GVCAGTSL);Punto;14.4012;-90.5411;;;;;#stylemap_tipo_sitio_roadm0;1;DON JUSTO;;;2287;;
SANTA ELENA BARILLAS (GVCAGTSE);Punto;14.40598056;-90.54501111;;;;;#stylemap_tipo_sitio_roadm0;1;;DON JUSTO;;;;
CELDA FINCA COLOMBIA (GFRAGTFC);Punto;14.5051;-90.4614;;;;;#stylemap_tipo_sitio_roadm0;1;DON JUSTO;;;1244;;
FRAIJANES (GFRAGTFR);Punto;14.46577778;-90.44047222;;;;;#stylemap_tipo_sitio_roadm0;1;;DON JUSTO;;;;
VILLA NUEVA (GVNUGTVN);Punto;14.525;-90.58722222;;;;;#stylemap_tipo_sitio_ila;1;;VILLA NUEVA;;2105-9239;;
CELDA VILLA NUEVA III (GVNUGTVU);Punto;14.5338;-90.5895;;;;;#stylemap_tipo_sitio_roadm0;1;VILLA NUEVA;;;3547;;
CELDA VILLA ROMANA (GVNUGTVO);Punto;14.50311111;-90.6125;;;;;#stylemap_tipo_sitio_roadm0;1;VILLA NUEVA;;;3609;;
CELDA SAN JOSE VILLA NUEVA IV (GVNUGTSV);Punto;14.5475;-90.5933;;;;;#stylemap_tipo_sitio_roadm0;1;;VILLA NUEVA;;2182;;
SAN JOSE VILLA NUEVA (GVNUGTSJ);Punto;14.5472;-90.59940278;;;;;#stylemap_tipo_sitio_roadm0;1;VILLA NUEVA;;;2156;;
LINDA VISTA (GVNUGTLV);Punto;14.5007;-90.599;;;;;#stylemap_tipo_sitio_roadm0;1;;VILLA NUEVA;;9008;;
CELDA NACIONES UNIDAS (GVNUGTNU);Punto;14.51191667;-90.60597222;;;;;#stylemap_tipo_sitio_roadm0;1;;VILLA NUEVA;;2140;;
CELDA PLANES DE BARCENAS II (GVNUGTP2);Punto;14.5283;-90.62290278;;;;;#stylemap_tipo_sitio_roadm0;1;VILLA NUEVA;;;3544;;
NACIONES UNIDAS_XT (GVNUGTNN);Punto;14.5093;-90.6085;;;;;#stylemap_tipo_sitio_roadm0;1;VILLA NUEVA;;;6282;;
CELDA PLANES DE BARCENAS (GVNUGTPB);Punto;14.52;-90.6244;;;;;#stylemap_tipo_sitio_roadm0;1;VILLA NUEVA;;;2144;;
CELDA LA FELICIDAD VILLA NUEVA (GVNUGTFE);Punto;14.52766667;-90.58386111;;;;;#stylemap_tipo_sitio_roadm0;1;;VILLA NUEVA;;;;
CELDA VALLE DE MARIA COUBICADO (GVNUGTVM);Punto;14.55348333;-90.57929167;;;;;#stylemap_tipo_sitio_roadm0;1;VILLA NUEVA;;;1582;;
CELDA BILLBOARD LLANRESA CENTRAL VILLA NUEVA (GVNUGTBN);Punto;14.53678056;-90.58419167;;;;;#stylemap_tipo_sitio_roadm0;1;;VILLA NUEVA;;5266;;
BARCENAS (GVNUGTBA);Punto;14.5331;-90.5961;;;;;#stylemap_tipo_sitio_roadm0;1;;VILLA NUEVA;;9039;;
CELDA LA ESTANCIA VILLA NUEVA (GVNUGTEV);Punto;14.54505556;-90.61080556;;;;;#stylemap_tipo_sitio_roadm0;1;VILLA NUEVA;;;2775;;
PASEO DE LAS FUENTES (GSMPGTPF);Punto;14.52376944;-90.55344167;;;;;#stylemap_tipo_sitio_roadm0;1;;VILLA HERMOSA;;9037;;
FUENTES DEL VALLE I (GVNUGTFV);Punto;14.52438611;-90.55375556;;;;;#stylemap_tipo_sitio_roadm0;1;VILLA HERMOSA;;;9006;;
RESIDENCIALES PETAPA II (GSMPGTRE);Punto;14.53651111;-90.553475;;;;;#stylemap_tipo_sitio_roadm0;1;;VILLA HERMOSA;;9045;;
VILLA HERMOSA (GVCAGTVH);Punto;14.52286111;-90.53594444;;;;;#stylemap_tipo_sitio_ila;1;VILLA HERMOSA;;;2094;;
RESIDENCIALES PETAPA I (GSMPGTRP);Punto;14.53405;-90.55618611;;;;;#stylemap_tipo_sitio_roadm0;1;VILLA HERMOSA;;;9038;;
CELDA ALAMEDAS DE VILLAFLORES COUBICADO (GSMPGTAV);Punto;14.52373056;-90.53296944;;;;;#stylemap_tipo_sitio_roadm0;1;VILLA HERMOSA;;;2659;;
CELDA NUEVA PROVIDENCIA TIQUISATE (ETIQGTNP);Punto;14.3388;-91.38016667;;;;;#stylemap_tipo_sitio_roadm0;1;ESCUINTLA;;;4217;;
CELDA UVG CAMPUS SUR (ESLCGTUC);Punto;14.33145;-91.05908889;;;;;#stylemap_tipo_sitio_roadm0;1;ESCUINTLA;;;5582;;
ESCUELA DE PARVULOS JESUS RODAS (QTZLGTEP);Punto;14.83700833;-91.51435;;;;;#stylemap_tipo_sitio_roadm0;1;;QUETZALTENANGO;;;;
COLONIA MOLINA (QTZLGTOO);Punto;14.83775833;-91.50600278;;;;;#stylemap_tipo_sitio_roadm0;1;QUETZALTENANGO;;;9474;;
TANQUE LA MUÑECA (QTZLGTTM);Punto;14.834275;-91.513225;;;;;#stylemap_tipo_sitio_roadm0;1;QUETZALTENANGO;;;;;
ESTADIO MARIO CAMPOSECO (QTZLGTER);Punto;14.84108611;-91.51783333;;;;;#stylemap_tipo_sitio_roadm0;1;;QUETZALTENANGO;;9481;;
IGLESIA SAN NICOLAS (QTZLGTIS);Punto;14.84316944;-91.51882778;;;;;#stylemap_tipo_sitio_roadm0;1;QUETZALTENANGO;;;;;
IGLESIA SAN BARTOLOME (QTZLGTIA);Punto;14.83115278;-91.51189444;;;;;#stylemap_tipo_sitio_roadm0;1;;QUETZALTENANGO;;9485;;
COLEGIO LA PATRIA (QTZLGTCR);Punto;14.84094444;-91.52377222;;;;;#stylemap_tipo_sitio_roadm0;1;QUETZALTENANGO;;;;;
LICEO GUATEMALA (QTZLGTLG);Punto;14.84290556;-91.535975;;;;;#stylemap_tipo_sitio_roadm0;1;;QUETZALTENANGO;;9488;;
COLONIA EL PARAISO QUETZALTENANGO (QTZLGTPU);Punto;14.83951944;-91.53461389;;;;;#stylemap_tipo_sitio_roadm0;1;QUETZALTENANGO;;;;;
MERCADO LAS FLORES (QTZLGTMO);Punto;14.83321389;-91.52468611;;;;;#stylemap_tipo_sitio_roadm0;1;;QUETZALTENANGO;;;;
CEMENTERIO GENERAL QUETZALTENANGO (QTZLGTCG);Punto;14.83772778;-91.52805833;;;;;#stylemap_tipo_sitio_roadm0;1;QUETZALTENANGO;;;;;
ALDEAS INFANTILES (QTZLGTAI);Punto;14.84415556;-91.52709722;;;;;#stylemap_tipo_sitio_roadm0;1;;QUETZALTENANGO;;9464;;
GBM (GNCYGTB3);Punto;14.58247222;-90.49464167;;;;;#stylemap_tipo_sitio_roadm0;1;;VILLA DE GUADALUPE;;;;
VILLA DE GUADALUPE (GNCYGTVG);Punto;14.59122222;-90.50822222;;;;;#stylemap_tipo_sitio_ila;1;MPBN;;;1009;;
ELGIN (GNCYGTEL);Punto;14.56697222;-90.52538889;;;;;#stylemap_tipo_sitio_roadm0;1;;VILLA DE GUADALUPE;;1120;;
CELDA BILLBOARD ELGIN (GNCYGTLG);Punto;14.56606944;-90.52810556;;;;;#stylemap_tipo_sitio_roadm0;1;VILLA DE GUADALUPE;;;2567;;
EL PUEBLITO (GSCPGTPU);Punto;14.56355;-90.48841944;;;;;#stylemap_tipo_sitio_roadm0;1;;VILLA DE GUADALUPE;;9027;;
CELDA CUCHILLA EL CARMEN (GSCPGTCM);Punto;14.55736111;-90.50314444;;;;;#stylemap_tipo_sitio_roadm0;1;VILLA DE GUADALUPE;;;3240;;
CELDA SANTA CATARINA PINULA (GSCPGTSC);Punto;14.57238889;-90.4975;;;;;#stylemap_tipo_sitio_roadm0;1;VILLA DE GUADALUPE;;;1126;;
EUROPLAZA (GNCYGTEP);Punto;14.58749722;-90.51392222;;;;;#stylemap_tipo_sitio_roadm0;1;;VILLA DE GUADALUPE;;9076;;
CELDA CENTRO COMERCIAL ARKADIA (GNCYGTKD);Punto;14.58023611;-90.4931;;;;;#stylemap_tipo_sitio_roadm0;1;VILLA DE GUADALUPE;;;5452-5457;;
DESIGN CENTER (GNCYGTDT);Punto;14.59901944;-90.50868333;;;;;#stylemap_tipo_sitio_roadm0;1;VILLA DE GUADALUPE;;;6097/6067;;
GBM (MPE_GBM);Punto;14.58247222;-90.49464167;;;;;#stylemap_tipo_sitio_roadm0;1;;;;;;
(GBM-CSC0);Punto;14.58247222;-90.49464167;;;;;#stylemap_tipo_sitio_roadm0;1;VILLA DE GUADALUPE;;;;;
CELDA LA AURORA (GNCYGTAU);Punto;14.59766667;-90.52736111;;;;;#stylemap_tipo_sitio_roadm0;1;;VILLA DE GUADALUPE;;1010;;
CELDA PAMPLONA ZONA 13 (GNCYGTPZ);Punto;14.60427778;-90.53305556;;;;;#stylemap_tipo_sitio_roadm0;1;VILLA DE GUADALUPE;;;1627;;
ZONA PRADERA (GNCYGTSZ);Punto;14.58176389;-90.49539722;;;;;#stylemap_tipo_sitio_roadm0;1;;VILLA DE GUADALUPE;;6086;;
GUARDA VIEJO ARRIBA (GNCYGTG2);Punto;14.615;-90.53416667;;;;;#stylemap_tipo_sitio_ila;1;GUARDA VIEJO;;;2018;;
BOULEVARD SAN CRISTOBAL (GMIXGTBU);Punto;14.60319444;-90.58308333;;;;;#stylemap_tipo_sitio_roadm0;1;;EL CARMEN;;2102;;
EL CARMEN (GNCYGTEC);Punto;14.59322222;-90.55136111;;;;;#stylemap_tipo_sitio_ila;1;EL CARMEN;;;2022;;
SAN JACINTO (GMIXGTSJ);Punto;14.62063889;-90.59683889;;;;;#stylemap_tipo_sitio_roadm0;1;EL CARMEN;;;2025;;
EL FISCAL (GPALGTFI);Punto;14.71596389;-90.39851944;;;;;#stylemap_tipo_sitio_roadm0;1;LOURDES;;;;;
LOURDES (GNCYGTLO);Punto;14.64819444;-90.47413889;;;;;#stylemap_tipo_sitio_ila;1;LOURDES;;;;;
CELDA SANTA CLARA ATLANTICO (GNCYGTSA);Punto;14.6488;-90.43540278;;;;;#stylemap_tipo_sitio_roadm0;1;LOURDES;;;;;
VILLAS DE ALCALA (GNCYGTVD);Punto;14.679275;-90.41329444;;;;;#stylemap_tipo_sitio_roadm0;1;LOURDES;;;9057;;
CELDA CRUCE A PALENCIA (GPALGTCA);Punto;14.71069444;-90.38497222;;;;;#stylemap_tipo_sitio_roadm0;1;LOURDES;;;1258;;
CELDA AGUA CALIENTE II (YSAPGTAC);Punto;14.7517;-90.3328;;;;;#stylemap_tipo_sitio_roadm0;1;LOURDES;;;1635;;
SAN JOSE DEL GOLFO (GSJGGTSJ);Punto;14.7612;-90.3714;;;;;#stylemap_tipo_sitio_roadm0;1;LOURDES;;;;;
CELDA SANTO DOMINGO LOS OCOTES (YSAPGTSD);Punto;14.7817;-90.32029722;;;;;#stylemap_tipo_sitio_roadm0;1;;LOURDES;;1740;;
SAN ANTONIO LA PAZ (PRO246)_XT (YSAPGTSN);Punto;14.78061111;-90.30344;;;;;#stylemap_tipo_sitio_roadm0;1;LOURDES;;;6499;;
CELDA AZACUALPILLA (GPALGTAU);Punto;14.7235;-90.36313889;;;;;#stylemap_tipo_sitio_roadm0;1;;LOURDES;;2190;;
CELDA LOS ANGELES ZONA 18 (GNCYGTAN);Punto;14.6456;-90.4279;;;;;#stylemap_tipo_sitio_roadm0;1;;LOURDES;;4512;;
CELDA LOS TECOMATES (GPALGTTE);Punto;14.63256944;-90.37752778;;;;;#stylemap_tipo_sitio_roadm0;1;LOURDES;;;;;
LOS OCOTES_XT_SBA (GNCYGT6X);Punto;14.60304;-90.41356;;;;;#stylemap_tipo_sitio_roadm0;1;LOURDES;;;6127;;
VILLA ATLANTIS (GNCYGTVK);Punto;14.65174167;-90.45427778;;;;;#stylemap_tipo_sitio_roadm0;1;LOURDES;;;9055;;
SAN PEDRO AYAMPUC (GSPAGTSP);Punto;14.77777778;-90.45277778;;;;;#stylemap_tipo_sitio_roadm0;1;;LOURDES;;;;
COLONIA MAYA (GNCYGTCM);Punto;14.66888889;-90.46383333;;;;;#stylemap_tipo_sitio_roadm0;1;LOURDES;;;1016;;
CELDA LAGUNILLA LO DE REYES (GSPAGTLL);Punto;14.74091667;-90.45097222;;;;;#stylemap_tipo_sitio_roadm0;1;LOURDES;;;3606;;
CELDA FAMILIAS DE ESPERANZA CHINAUTLA (GCHIGTFE);Punto;14.72369444;-90.46456111;;;;;#stylemap_tipo_sitio_roadm0;1;LOURDES;;;;;
CELDA ALTOS DE SANTA MARIA (GSPAGTAS);Punto;14.7517;-90.45358889;;;;;#stylemap_tipo_sitio_roadm0;1;LOURDES;;;5228;;
SAN JOSE NACAHUIL_XT_SBA (GSPAGTSS);Punto;14.75733333;-90.47522222;;;;;#stylemap_tipo_sitio_roadm0;1;LOURDES;;;5534;;
CONDOMINIO DEL VALLE (GNCYGTCL);Punto;14.60734722;-90.59725;;;;;#stylemap_tipo_sitio_roadm0;1;;EL CARMEN;;9072;;
PAISAJES (GMIXGTPA);Punto;14.61155;-90.60249167;;;;;#stylemap_tipo_sitio_roadm0;1;EL CARMEN;;;9094;;
GRANJAS DE SAN CRISTOBAL (GMIXGTGS);Punto;14.6027;-90.59580278;;;;;#stylemap_tipo_sitio_roadm0;1;EL CARMEN;;;2066;;
CELDA LA BENDICION DE DIOS (GMIXGTBD);Punto;14.61561111;-90.57463889;;;;;#stylemap_tipo_sitio_roadm0;1;EL CARMEN;;;;;
KIO (GMIXGTKI);Punto;14.65505556;-90.54443611;;;;;#stylemap_tipo_sitio_roadm0;1;;UTATLAN;;;;
UTATLAN (GNCYGTUT);Punto;14.6277;-90.56120278;;;;;#stylemap_tipo_sitio_ila;1;UTATLAN;;;2012;;
CELDA CHINIQUE (KCHNGTCI);Punto;15.04361111;-91.02694444;;;;;#stylemap_tipo_sitio_roadm0;1;;SANTA CRUZ DEL QUICHE;;2404;;
CELDA ZACUALPA - CHINIQUE I (KZACGTZC);Punto;15.0095;-90.9269;;;;;#stylemap_tipo_sitio_roadm0;1;SANTA CRUZ DEL QUICHE;;;2679;;
CELDA JOYABAJ - ZACUALPA (KJOYGTJZ);Punto;15.0106;-90.8257;;;;;#stylemap_tipo_sitio_roadm0;1;SANTA CRUZ DEL QUICHE;;;3438;;
CELDA EL BOQUERON (KJOYGTBO);Punto;14.94736111;-90.91394722;;;;;#stylemap_tipo_sitio_roadm0;1;SANTA CRUZ DEL QUICHE;;;4653;;
CELDA TRES CRUCES (BCUBGTTC);Punto;15.0254;-90.6883;;;;;#stylemap_tipo_sitio_roadm0;1;SANTA CRUZ DEL QUICHE;;;1538;;
CELDA CHUITZALIC (KSPJGTCH);Punto;15.13016667;-91.15997222;;;;;#stylemap_tipo_sitio_roadm0;1;;SANTA CRUZ DEL QUICHE;;3639;;
CELDA SAN PEDRO JOCOPILAS (KSPJGTPJ);Punto;15.0949;-91.14980278;;;;;#stylemap_tipo_sitio_roadm0;1;SANTA CRUZ DEL QUICHE;;;;;
CELDA LLANO COYOTE (HAGUGTLC);Punto;15.3136;-91.24327778;;;;;#stylemap_tipo_sitio_roadm0;1;;SANTA CRUZ DEL QUICHE;;3611;;
CELDA LA PRIMAVERA (TSLRGTLP);Punto;15.16913889;-91.21008333;;;;;#stylemap_tipo_sitio_roadm0;1;SANTA CRUZ DEL QUICHE;;;3420;;
SAN ANTONIO ILOTENANGO (KSAIGTSA);Punto;15.04830556;-91.22816667;;;;;#stylemap_tipo_sitio_roadm0;1;;SANTA CRUZ DEL QUICHE;;2418;;
CELDA CHICHE (KCHHGTCI);Punto;15.0047;-91.0669;;;;;#stylemap_tipo_sitio_roadm0;1;;SANTA CRUZ DEL QUICHE;;2436;;
CELDA QUICHE II (KSCQGTQI);Punto;15.02622222;-91.1505;;;;;#stylemap_tipo_sitio_roadm0;1;;SANTA CRUZ DEL QUICHE;;2472;;
CENTRO (GNCYGTAJ);Punto;14.63705556;-90.51272222;;;;;#stylemap_tipo_sitio_ila;1;;RCT;;1001-2502;;
NIMAJUYU (GNCYGTNM);Punto;14.5504;-90.5507;;;;;#stylemap_tipo_sitio_ila;1;NIMAJUYU;;;2110;;
BOSQUES DE SAN NICOLAS (GMIXGTSN);Punto;14.65844444;-90.56694444;;;;;#stylemap_tipo_sitio_ila;1;BOSQUES DE SAN NICOLAS;;;2111;;
EL MILAGRO (GMIXGTEM);Punto;14.67444444;-90.57166667;;;;;#stylemap_tipo_sitio_ila;1;EL MILAGRO;;;2121;;
AMATITLAN (GAMAGTAM);Punto;14.48777778;-90.61333333;;;;;#stylemap_tipo_sitio_ila;1;AMATITLAN;;;9061;;
CHIMALTENANGO (CHMLGTCM);Punto;14.65944444;-90.81888889;;;;;#stylemap_tipo_sitio_ila;1;CHIMALTENANGO;;;2603;;
ZACAPA (ZCPAGTZC);Punto;14.97277778;-89.53277778;;;;;#stylemap_tipo_sitio_ila;1;CORE ORIENTE;;;;;
RETALHULEU (RTLHGTRU);Punto;14.53583333;-91.67805556;;;;;#stylemap_tipo_sitio_ila;1;RETALHULEU;;;2230;;
GUARDA VIEJO ABAJO (GNCYGTGV);Punto;14.61555556;-90.53388889;;;;;#stylemap_tipo_sitio_ila;1;IMS GUARDA VIEJO;;;9064;;
VISTA HERMOSA (GNCYGTVH);Punto;14.5963;-90.49479722;;;;;#stylemap_tipo_sitio_ila;1;VISTA HERMOSA;;;1008;;
PARROQUIA (GNCYGTPA);Punto;14.65013333;-90.49571111;;;;;#stylemap_tipo_sitio_ila;1;PARROQUIA;;;9065;;
ANTIGUA GUATEMALA (ANGTGTAN);Punto;14.55617778;-90.74255833;;;;;#stylemap_tipo_sitio_ila;1;ANTIGUA GUATEMALA;;;2747 - 9302;;
EL ZAPOTE_XT CT (GNCYGT3Z);Punto;14.66218889;-90.51591111;;;;;#stylemap_tipo_sitio_ila;1;CENTRO;;;3129;;
EL FRUTAL (GSMPGTFR);Punto;14.50198056;-90.56138056;;;;;#stylemap_tipo_sitio_ila;1;EL FRUTAL;;;3780;;
EL CAMINERO (GMIXGTCA);Punto;14.65923333;-90.588525;;;;;#stylemap_tipo_sitio_ila;1;EL CAMINERO;;;9025;;
ACATAN (GNCYGTAC);Punto;14.62291667;-90.47436111;;;;;#stylemap_tipo_sitio_ila;1;ACATAN;;;1007;;
SAN ISIDRO (GNCYGTSI);Punto;14.61828056;-90.45931389;;;;;#stylemap_tipo_sitio_ila;1;SAN ISIDRO;;;;;
CENTRO (CEN-CSC0);Punto;14.63705556;-90.51272222;;;;;#stylemap_tipo_sitio_roadm0;1;GUARDA VIEJO;;;;;
LA FLORESTA (QTZLGTLF);Punto;14.84653333;-91.52573333;;;;;#stylemap_tipo_sitio_ila;1;LA FLORESTA;;;2312;;
JUTIAPA (JTPAGTJU);Punto;14.2875;-89.89444444;;;;;#stylemap_tipo_sitio_ila;1;CORE ORIENTE;;;9322;;
REFORMITA (GNCYGTRE);Punto;14.6;-90.54888889;;;;;#stylemap_tipo_sitio_ila;1;REFORMITA;;;3342;;
PRIMERO DE JULIO (GMIXGTPJ);Punto;14.66483333;-90.57108333;;;;;#stylemap_tipo_sitio_ila;1;PRIMERO DE JULIO;;;2060;;
UNIVERSIDAD RAFAEL LANDIVAR (GNCYGTRL);Punto;14.5953;-90.48449722;;;;;#stylemap_tipo_sitio_ila;1;UNIVERSIDAD RAFAEL LANDIVAR;;;;;
CELDA HUEHUETENANGO CAMBOTE (HMALGTHC);Punto;15.30769444;-91.49444444;;;;;#stylemap_tipo_sitio_ila;1;HUEHUETENANGO;;;2423;;
MALACATAN (NMALGTMA);Punto;14.9205;-92.06175;;;;;#stylemap_tipo_sitio_ila;1;MALACATAN;;;2361;;
SOLOLA (SLLAGTSL);Punto;14.76805556;-91.18277778;;;;;#stylemap_tipo_sitio_ila;1;SOLOLA;;;2337;;
SAN MARCOS (NSMAGTSM);Punto;14.96333333;-91.79111111;;;;;#stylemap_tipo_sitio_ila;1;SAN MARCOS;;;2360;;
MAZATENANGO (MZTNGTMZ);Punto;14.5325;-91.50388889;;;;;#stylemap_tipo_sitio_ila;1;MAZATENANGO;;;2225;;
GUASTATOYA (YGUAGTGU);Punto;14.85277778;-90.07055556;;;;;#stylemap_tipo_sitio_ila;1;GUASTATOYA;;;1441;;
BARBERENA (OBARGTBA);Punto;14.30611111;-90.36222222;;;;;#stylemap_tipo_sitio_ila;1;BARBERENA;;;1222;;
SANTA ELENA PETEN (PFLOGTSE);Punto;16.9186;-89.8922;;;;;#stylemap_tipo_sitio_ila;1;SANTA ELENA PETEN;;;1426;;
CHIQUIMULA (UCHIGTCH);Punto;14.79944444;-89.54569444;;;;;#stylemap_tipo_sitio_ila;1;CHIQUIMULA;;;1423;;
RIO HONDO (ZRHOGTRH);Punto;15.04328056;-89.5849;;;;;#stylemap_tipo_sitio_ila;1;RIO HONDO;;;;;
LOS AMATES (IAMAGTAM);Punto;15.25444444;-89.09666667;;;;;#stylemap_tipo_sitio_ila;1;LOS AMATES;;;1411;;
HUEHUETENANGO (HUEHGTHU);Punto;15.32638889;-91.46583333;;;;;#stylemap_tipo_sitio_ila;1;HUEHUETENANGO;;;2424;;
COMOSA (GMIXGTCO);Punto;14.59845278;-90.59515;;;;;#stylemap_tipo_sitio_roadm0;1;EL CARMEN;;;9071;;
CELDA SAN ANTONIO LA PAZ (YSAPGTSA);Punto;14.75611111;-90.28555556;;;;;#stylemap_tipo_sitio_roadm0;1;LOURDES;;;;;
CELDA CANALITOS (GNCYGTC3);Punto;14.6257;-90.4496;;;;;#stylemap_tipo_sitio_roadm0;1;LOURDES;;;2070;;
CELDA JUANA DE ARCO I (GNCYGTJH);Punto;14.6575;-90.4683;;;;;#stylemap_tipo_sitio_roadm0;1;LOURDES;;;3744;;
CELDA LOMAS DEL NORTE (GNCYGTOD);Punto;14.6433;-90.45939722;;;;;#stylemap_tipo_sitio_roadm0;1;LOURDES;;;1563;;
LANCASCO_XT (GNCYGT65);Punto;14.650025;-90.4727;;;;;#stylemap_tipo_sitio_roadm0;1;LOURDES;;;6372;;
CELDA DISTUN ZONA 18 (GNCYGTDO);Punto;14.6525;-90.45929722;;;;;#stylemap_tipo_sitio_roadm0;1;LOURDES;;;1130;;
SAN RAFAEL ZONA 18 (GNCYGTSR);Punto;14.6596;-90.44270278;;;;;#stylemap_tipo_sitio_roadm0;1;LOURDES;;;1127;;
CELDA MONTE REAL (GMIXGTME);Punto;14.64333056;-90.56546944;;;;;#stylemap_tipo_sitio_roadm0;1;MONTE VERDE;;;2021;;
CELDA ALTAMURA (GSCPGTAL);Punto;14.52805556;-90.44944444;;;;;#stylemap_tipo_sitio_roadm0;1;DON JUSTO;;;1108;;
EL PERIODISTA (GMIXGTPR);Punto;14.6288;-90.57499722;;;;;#stylemap_tipo_sitio_roadm0;1;UTATLAN;;;;;
BETHANIA (GNCYGTBE);Punto;14.64872222;-90.53516667;;;;;#stylemap_tipo_sitio_roadm0;1;UTATLAN;;;2013;;
ALDEA EL CARMEN (GSCPGTCS);Punto;14.54000833;-90.52051667;;;;;#stylemap_tipo_sitio_roadm0;1;VILLA DE GUADALUPE;;;;;
CELDA OAKLAND MALL (GNCYGTKM);Punto;14.59532778;-90.50645;;;;;#stylemap_tipo_sitio_roadm0;1;VILLA DE GUADALUPE;;;1153 - 3281;;
TIVOLI (TIV-CSC0);Punto;14.60882222;-90.51547222;;;;;#stylemap_tipo_sitio_roadm0;1;TIVOLI;;;;;
VILLA DE GUADALUPE (VDG-C650);Punto;14.59122222;-90.50822222;;;;;#stylemap_tipo_sitio_roadm0;1;VILLA DE GUADALUPE;;;;;
CELDA TORRE ZONA PRADERA III (GNCYGTT3);Punto;14.58221389;-90.49398889;;;;;#stylemap_tipo_sitio_roadm0;1;VILLA DE GUADALUPE;;;6092;;
RIBERA DEL RIO (GSMPGTRR);Punto;14.50419444;-90.5435;;;;;#stylemap_tipo_sitio_roadm0;1;VILLA HERMOSA;;;;;
VILLA HERMOSA_XT_DET (GSMPGTVI);Punto;14.5190667;-90.5454139;;;;;#stylemap_tipo_sitio_roadm0;1;VILLA HERMOSA;;;3264;;
EL FRUTAL_XT (GVNUGTFL);Punto;14.525939;-90.553462;;;;;#stylemap_tipo_sitio_roadm0;1;VILLA HERMOSA;;;6543;;
CELDA PRADOS DE VILLA HERMOSA (GSMPGTPL);Punto;14.53422222;-90.54588889;;;;;#stylemap_tipo_sitio_roadm0;1;VILLA HERMOSA;;;1576;;
CELDA VILLA HERMOSA II (GSMPGTLL);Punto;14.519;-90.54810278;;;;;#stylemap_tipo_sitio_roadm0;1;VILLA HERMOSA;;;2167;;
CELDA PRADOS DE VILLA HERMOSA III (GSMPGTPA);Punto;14.53175;-90.55336111;;;;;#stylemap_tipo_sitio_roadm0;1;VILLA HERMOSA;;;2093;;
BOCA DEL MONTE (GVCAGTBM);Punto;14.5534;-90.52639722;;;;;#stylemap_tipo_sitio_roadm0;1;NIMAJUYU;;;1029;;
CELDA LOMA REAL COUBICADO (GNCYGTRU);Punto;14.5418;-90.554;;;;;#stylemap_tipo_sitio_roadm0;1;NIMAJUYU;;;4644;;
CELDA ESMERALDA (GNCYGTEF);Punto;14.53936111;-90.54988889;;;;;#stylemap_tipo_sitio_roadm0;1;NIMAJUYU;;;1520;;
JUSTO RUFINO BARRIOS (GNCYGTJR);Punto;14.5504;-90.53399722;;;;;#stylemap_tipo_sitio_roadm0;1;NIMAJUYU;;;;;
VIENTOS DEL VALLE (GNCYGTVV);Punto;14.56257222;-90.55029444;;;;;#stylemap_tipo_sitio_roadm0;1;NIMAJUYU;;;;;
SANTA LUISA (GNCYGTSL);Punto;14.6814;-90.4889;;;;;#stylemap_tipo_sitio_roadm0;1;PARROQUIA;;;;;
LA PARROQUIA_XT (GNCYGTQX);Punto;14.6483439;-90.5004816;;;;;#stylemap_tipo_sitio_roadm0;1;PARROQUIA;;;3132;;
CELDA CIPRESALES ZONA 6 (GNCYGTIR);Punto;14.66219444;-90.48941667;;;;;#stylemap_tipo_sitio_roadm0;1;PARROQUIA;;;1103;;
VILLAS DE ARCANGEL (GNCYGTVR);Punto;14.67296389;-90.5016;;;;;#stylemap_tipo_sitio_roadm0;1;PARROQUIA;;;;;
EDIFICIO ZONA 6 (GNCYGTEZ);Punto;14.65326944;-90.48976944;;;;;#stylemap_tipo_sitio_roadm0;1;PARROQUIA;;;1103;;
CELDA BARCENAS (GVNUGTBR);Punto;14.533;-90.59613889;;;;;#stylemap_tipo_sitio_roadm0;1;VILLA NUEVA;;;2034;;
CELDA RESIDENCIALES CATALINA II (GVNUGTC2);Punto;14.53827778;-90.58063889;;;;;#stylemap_tipo_sitio_roadm0;1;VILLA NUEVA;;;2178;;
MAGA (GVNUGTAG);Punto;14.51921667;-90.62080833;;;;;#stylemap_tipo_sitio_roadm0;1;VILLA NUEVA;;;9033;;
PALIN (EPALGTPA);Punto;14.40397222;-90.69880556;;;;;#stylemap_tipo_sitio_roadm0;1;AMATITLAN;;;2503;;
CELDA LA CEIBA (EESCGTCB);Punto;14.28485278;-90.79348889;;;;;#stylemap_tipo_sitio_roadm0;1;ESCUINTLA;;;2296;;
CIUDAD VIEJA (ACVIGTCV);Punto;14.52493;-90.765;;;;;#stylemap_tipo_sitio_roadm0;1;ANTIGUA GUATEMALA;;;9312;;
JOCOTENANGO (AJOCGTJO);Punto;14.57852778;-90.73888889;;;;;#stylemap_tipo_sitio_roadm0;1;ANTIGUA GUATEMALA;;;2304;;
ANTIGUA II_XT_SBA (ANGTGTAI);Punto;14.55461111;-90.72225278;;;;;#stylemap_tipo_sitio_roadm0;1;ANTIGUA GUATEMALA;;;3062;;
CELDA SAN CRISTOBAL EL ALTO (ANGTGTSC);Punto;14.53658333;-90.72013889;;;;;#stylemap_tipo_sitio_roadm0;1;ANTIGUA GUATEMALA;;;2979;;
PANORAMA (ASSAGTPA);Punto;14.54339972;-90.74349972;;;;;#stylemap_tipo_sitio_roadm0;1;ANTIGUA GUATEMALA;;;;;
CELDA SANTA MARIA DE JESUS (ASMJGTMJ);Punto;14.49820028;-90.70819833;;;;;#stylemap_tipo_sitio_roadm0;1;ANTIGUA GUATEMALA;;;2333;;
SUMPANGO (ASUMGTSU);Punto;14.65000833;-90.70327778;;;;;#stylemap_tipo_sitio_roadm0;1;CHIMALTENANGO;;;;;
EL TEJAR (CTEJGTTE);Punto;14.64642778;-90.79123889;;;;;#stylemap_tipo_sitio_roadm0;1;CHIMALTENANGO;;;9316;;
SAN MARTIN JILOTEPEQUE (CSMJGTSM);Punto;14.78;-90.79305556;;;;;#stylemap_tipo_sitio_roadm0;1;CHIMALTENANGO;;;9351;;
CELDA CIENAGA GRANDE (CHMLGTCG);Punto;14.6887;-90.7944;;;;;#stylemap_tipo_sitio_roadm0;1;CHIMALTENANGO;;;3304;;
CHIMALTENANGO 2_XT_DET (CHMLGTCX);Punto;14.6624917;-90.8182778;;;;;#stylemap_tipo_sitio_roadm0;1;CHIMALTENANGO;;;3473;;
CELDA CHIMALTENANGO IV (CHMLGTC4);Punto;14.66025278;-90.82529444;;;;;#stylemap_tipo_sitio_roadm0;1;CHIMALTENANGO;;;4380;;
CELDA ZARAGOZA (CZARGTZR);Punto;14.64472222;-90.89305556;;;;;#stylemap_tipo_sitio_roadm0;1;CHIMALTENANGO;;;2314;;
TECPAN GUATEMALA (CTGUGTTG);Punto;14.7605;-90.992;;;;;#stylemap_tipo_sitio_roadm0;1;CHIMALTENANGO;;;2319;;
CELDA CHIMALTENANGO I (CHMLGTC1);Punto;14.6527;-90.8226;;;;;#stylemap_tipo_sitio_roadm0;1;CHIMALTENANGO;;;2355;;
SAN ANTONIO SUCHITEPEQUEZ (MSANGTSA);Punto;14.54018056;-91.41670278;;;;;#stylemap_tipo_sitio_roadm0;1;MAZATENANGO;;;2221;;
CELDA VILLAS DE ZAPOTITLAN (MZTNGTVZ);Punto;14.55575;-91.50969444;;;;;#stylemap_tipo_sitio_roadm0;1;MAZATENANGO;;;;;
CUYOTENANGO (MCUYGTCU);Punto;14.53833333;-91.57194444;;;;;#stylemap_tipo_sitio_roadm0;1;MAZATENANGO;;;2228;;
CELDA LAS VARITAS SUCHITEPEQUEZ (MSANGTVS);Punto;14.51576111;-91.47728889;;;;;#stylemap_tipo_sitio_roadm0;1;MAZATENANGO;;;2895;;
COLONIA VILLA LINDA MAZATENANGO (MZTNGTCV);Punto;14.54305556;-91.50583333;;;;;#stylemap_tipo_sitio_roadm0;1;MAZATENANGO;;;;;
COLONIA JARDINES (MZTNGTCJ);Punto;14.53472222;-91.48472222;;;;;#stylemap_tipo_sitio_roadm0;1;MAZATENANGO;;;;;
COLONIA FLOR DEL CAFE (MZTNGTCF);Punto;14.53055556;-91.5175;;;;;#stylemap_tipo_sitio_roadm0;1;MAZATENANGO;;;;;
CALZADA CENTENARIO ACEITUNO (MZTNGTCC);Punto;14.53361111;-91.51666667;;;;;#stylemap_tipo_sitio_roadm0;1;MAZATENANGO;;;;;
CELDA SANTO DOMINGO SUCHITEPEQUEZ (MSDSGTSD);Punto;14.4796;-91.48660278;;;;;#stylemap_tipo_sitio_roadm0;1;MAZATENANGO;;;2271;;
CELDA MAZATENANGO III - IGSS (MZTNGTMA);Punto;14.53555556;-91.51702778;;;;;#stylemap_tipo_sitio_roadm0;1;MAZATENANGO;;;2227;;
CELDA MERCADO MAZATENANGO (MZTNGTMM);Punto;14.53256944;-91.50646111;;;;;#stylemap_tipo_sitio_roadm0;1;MAZATENANGO;;;2116;;
CELDA SAN GABRIEL - SAN LORENZO (MSLOGTSG);Punto;14.4965;-91.5075;;;;;#stylemap_tipo_sitio_roadm0;1;MAZATENANGO;;;2262;;
SAN BERNARDINO (MSBEGTSE);Punto;14.5464;-91.46309722;;;;;#stylemap_tipo_sitio_roadm0;1;MAZATENANGO;;;2219;;
MAZATENANGO NODO T1_217 (MZTNGTMN);Punto;14.54146944;-91.50166944;;;;;#stylemap_tipo_sitio_roadm0;1;MAZATENANGO;;;4077;;
CELDA PALESTINA DE LOS ALTOS (QPAAGTPT);Punto;14.9359;-91.69370278;;;;;#stylemap_tipo_sitio_roadm0;1;SAN MARCOS;;;;;
CELDA SAN ISIDRO CHAMAC (NSPSGTSS);Punto;14.96897222;-91.76305556;;;;;#stylemap_tipo_sitio_roadm0;1;SAN MARCOS;;;3644;;
CELDA SERCHIL PUEBLO (NSMAGTSP);Punto;15.06552778;-91.83311111;;;;;#stylemap_tipo_sitio_roadm0;1;SAN MARCOS;;;3225;;
CERRO COTZIJ (NSJOGTCO);Punto;15.18670278;-91.94868889;;;;;#stylemap_tipo_sitio_roadm0;1;SAN MARCOS;;;2457;;
CATEDRAL SAN MARCOS (NSMAGTCN);Punto;14.96194444;-91.79555556;;;;;#stylemap_tipo_sitio_roadm0;1;SAN MARCOS;;;;;
SAN RAFAEL PIE DE LA CUESTA (NSRPGTSR);Punto;14.93055556;-91.91444444;;;;;#stylemap_tipo_sitio_roadm0;1;SAN MARCOS;;;2380;;
INSTITUTO ADOLFO V. HALL (NSMAGTIA);Punto;14.93833333;-91.79;;;;;#stylemap_tipo_sitio_roadm0;1;SAN MARCOS;;;;;
CELDA SAN PEDRO SAN MARCOS (NSPSGTSE);Punto;14.9662;-91.784;;;;;#stylemap_tipo_sitio_roadm0;1;SAN MARCOS;;;;;
CELDA SAN PEDRO SACATEPEQUEZ SAN MARCOS (NSPSGTSP);Punto;14.97075;-91.77666667;;;;;#stylemap_tipo_sitio_roadm0;1;SAN MARCOS;;;2359;;
CELDA ESQUIPULAS PALO GORDO (NEPGGTEP);Punto;14.938;-91.83470278;;;;;#stylemap_tipo_sitio_roadm0;1;SAN MARCOS;;;;;
CELDA CHIANTLA (HCHIGTCI);Punto;15.3559;-91.4578;;;;;#stylemap_tipo_sitio_roadm0;1;HUEHUETENANGO;;;2425;;
AGUACATAN (HAGUGTAG);Punto;15.34125;-91.31636111;;;;;#stylemap_tipo_sitio_roadm0;1;HUEHUETENANGO;;;2426;;
MALACATANCITO (HMALGTMA);Punto;15.24458333;-91.49444444;;;;;#stylemap_tipo_sitio_roadm0;1;HUEHUETENANGO;;;2414;;
CHIANTLA (HCHIGTCH);Punto;15.35502778;-91.45938333;;;;;#stylemap_tipo_sitio_roadm0;1;HUEHUETENANGO;;;9406;;
COLONIA SAN SEBASTIAN (HUEHGTCS);Punto;15.32166667;-91.47444444;;;;;#stylemap_tipo_sitio_roadm0;1;HUEHUETENANGO;;;;;
ZACULEU (HUEHGTZA);Punto;15.32681944;-91.51453056;;;;;#stylemap_tipo_sitio_roadm0;1;HUEHUETENANGO;;;9461;;
CELDA SANTA ANA HUISTA (HAHUGTSN);Punto;15.68231111;-91.82043056;;;;;#stylemap_tipo_sitio_roadm0;1;HUEHUETENANGO;;;;;
COLOTENANGO (HCOLGTCO);Punto;15.3993;-91.715;;;;;#stylemap_tipo_sitio_roadm0;1;HUEHUETENANGO;;;2421;;
CELDA CERRO LLANO GRANDE (HMALGTLG);Punto;15.29175;-91.43808333;;;;;#stylemap_tipo_sitio_roadm0;1;HUEHUETENANGO;;;;;
SAN ANTONIO HUISTA (HSAHGTSA);Punto;15.65111111;-91.77083333;;;;;#stylemap_tipo_sitio_roadm0;1;HUEHUETENANGO;;;2449;;
CELDA SAN MARTIN CUCHUMATAN (HTSCGTSM);Punto;15.57722222;-91.67013889;;;;;#stylemap_tipo_sitio_roadm0;1;HUEHUETENANGO;;;2485;;
CELDA SAN RAFAEL PETZAL (HSRPGTRP);Punto;15.4056;-91.6657;;;;;#stylemap_tipo_sitio_roadm0;1;HUEHUETENANGO;;;;;
CAMBOTE (HUEHGTCA);Punto;15.3078;-91.4944;;;;;#stylemap_tipo_sitio_roadm0;1;HUEHUETENANGO;;;2423;;
CELDA CAMBOTE COUBICADO (HMALGTCC);Punto;15.31306944;-91.49876111;;;;;#stylemap_tipo_sitio_roadm0;1;HUEHUETENANGO;;;2864;;
SAN PEDRO CARCHA (VSPCGTSP);Punto;15.4789;-90.31559722;;;;;#stylemap_tipo_sitio_roadm0;1;COBAN;;;;;
CELDA CHICUXAB (VCOBGTCH);Punto;15.42694444;-90.40975;;;;;#stylemap_tipo_sitio_roadm0;1;COBAN;;;1541;;
CELDA COBAN IV (SALIDA A SAN PEDRO CARCHA) (VCOBGTC4);Punto;15.47122222;-90.363;;;;;#stylemap_tipo_sitio_roadm0;1;COBAN;;;5330;;
ESCUELA JOSEFINA JACINTO (VCOBGTEO);Punto;15.47071389;-90.38139722;;;;;#stylemap_tipo_sitio_roadm0;1;COBAN;;;9567CX;;
MSAN JAZMINES II (VCOBGTMJ);Punto;15.47145833;-90.39726944;;;;;#stylemap_tipo_sitio_roadm0;1;COBAN;;;;;
CHISEC (VCHIGTCH);Punto;15.80972222;-90.29194444;;;;;#stylemap_tipo_sitio_roadm0;1;COBAN;;;1452;;
CELDA COBAN POSTE E (VCOBGTPE);Punto;15.46909722;-90.36889722;;;;;#stylemap_tipo_sitio_roadm0;1;COBAN;;;5380;;
SAN JUAN CHAMELCO (VSJCGTSJ);Punto;15.42836111;-90.33105556;;;;;#stylemap_tipo_sitio_roadm0;1;COBAN;;;;;
SAYAXCHE (PSAYGTSA);Punto;16.5237;-90.1857;;;;;#stylemap_tipo_sitio_ila;1;SAYAXCHE;;;1436;;
CELDA COBAN POSTE F (VCOBGTPF);Punto;15.45979722;-90.36759722;;;;;#stylemap_tipo_sitio_roadm0;1;COBAN;;;5390;;
COBAN ORIENTE_XT (VCOBGTCR);Punto;15.466509;-90.368766;;;;;#stylemap_tipo_sitio_roadm0;1;COBAN;;;4200;;
SANTA LUCIA UTATLAN (SSLUGTLU);Punto;14.77886667;-91.26901667;;;;;#stylemap_tipo_sitio_roadm0;1;SOLOLA;;;2394;;
CERRO LINDA VISTA (SSJCGTCO);Punto;14.75777778;-91.21083333;;;;;#stylemap_tipo_sitio_roadm0;1;SOLOLA;;;2320;;
PANAJACHEL (SPANGTPA);Punto;14.7417;-91.1578;;;;;#stylemap_tipo_sitio_roadm0;1;SOLOLA;;;2318;;
CELDA LOS ENCUENTROS (SLLAGTEN);Punto;14.85786111;-91.15175;;;;;#stylemap_tipo_sitio_roadm0;1;SOLOLA;;;2325;;
CELDA CONCEPCION SOLOLA (SCONGTCO);Punto;14.7762;-91.1437;;;;;#stylemap_tipo_sitio_roadm0;1;SOLOLA;;;4516;;
CELDA LOS ENCUENTROS PETEN (PFLOGTEP);Punto;16.95075;-89.48591667;;;;;#stylemap_tipo_sitio_roadm0;1;SANTA ELENA PETEN;;;;;
CELDA CRUCE A TIKAL (PFLOGTCT);Punto;16.89858333;-89.81363889;;;;;#stylemap_tipo_sitio_roadm0;1;SANTA ELENA PETEN;;;1478;;
CERRO PURUCILA (PANAGTPU);Punto;16.8625;-89.85472222;;;;;#stylemap_tipo_sitio_roadm0;1;SANTA ELENA PETEN;;;3152;;
LA LIBERTAD PETEN (PLIBGTLI);Punto;16.78378333;-90.11486111;;;;;#stylemap_tipo_sitio_roadm0;1;SANTA ELENA PETEN;;;;;
SANTA ANA (PANAGTSA);Punto;16.80580556;-89.82505556;;;;;#stylemap_tipo_sitio_roadm0;1;SANTA ELENA PETEN;;;1321;;
ALMOLONGA (QALMGTAL);Punto;14.81538889;-91.49708333;;;;;#stylemap_tipo_sitio_roadm0;1;LA FLORESTA;;;;;
SALCAJA (QSALGTSA);Punto;14.87816667;-91.45666667;;;;;#stylemap_tipo_sitio_roadm0;1;LA FLORESTA;;;GTMSAN007;;
OLINTEPEQUE (QOLIGTOL);Punto;14.87771667;-91.51365;;;;;#stylemap_tipo_sitio_roadm0;1;LA FLORESTA;;;2379;;
CANTEL (QCANGTCA);Punto;14.8132;-91.4552;;;;;#stylemap_tipo_sitio_roadm0;1;LA FLORESTA;;;;;
CELDA CERRO RAXQUIN (QCANGTRX);Punto;14.82194444;-91.40611111;;;;;#stylemap_tipo_sitio_roadm0;1;LA FLORESTA;;;2311;;
HOSPITAL DE QUETZALTENANGO (QTZLGTHQ);Punto;14.85561389;-91.53665556;;;;;#stylemap_tipo_sitio_roadm0;1;LA FLORESTA;;;9483;;
COLONIA EL MAESTRO QUETZALTENANGO (QTZLGTOM);Punto;14.85885;-91.54648889;;;;;#stylemap_tipo_sitio_roadm0;1;LA FLORESTA;;;9439;;
CELDA QUETZALTENANGO III (CARRETERA LOS ALTOS) (QTZLGTQ3);Punto;14.85652778;-91.50744444;;;;;#stylemap_tipo_sitio_roadm0;1;LA FLORESTA;;;2352;;
CONDOMINIO EL TRIANGULO (QTZLGTOT);Punto;14.85151389;-91.52322778;;;;;#stylemap_tipo_sitio_roadm0;1;LA FLORESTA;;;9476;;
COLONIA LOS CEREZOS (QTZLGTCS);Punto;14.847325;-91.541325;;;;;#stylemap_tipo_sitio_roadm0;1;LA FLORESTA;;;9473;;
MONTE BELLO (GNCYGTMB);Punto;14.5717;-90.47599722;;;;;#stylemap_tipo_sitio_roadm0;1;VISTA HERMOSA;;;9034;;
GBM (MPE_2_GB);Punto;14.58246944;-90.49463611;;;;;#stylemap_tipo_sitio_roadm0;1;;;;;;
CELDA COLONIA LA PRIMAVERA AMATITLAN (GAMAGTCP);Punto;14.47266667;-90.63336111;;;;;#stylemap_tipo_sitio_roadm0;1;AMATITLAN;;;;;
CELDA AMATITLAN II (GAMAGTA2);Punto;14.47233333;-90.6441;;;;;#stylemap_tipo_sitio_roadm0;1;AMATITLAN;;;2289;;
AMATITLAN CENTRO_XT_SBA (GAMAGTAX);Punto;14.479573;-90.629057;;;;;#stylemap_tipo_sitio_roadm0;1;AMATITLAN;;;5164;;
CELDA PUENTE LA GLORIA AMATITLAN COUBICADO (GAMAGTPG);Punto;14.48158056;-90.61180556;;;;;#stylemap_tipo_sitio_roadm0;1;AMATITLAN;;;3251;;
LA MONTAÑA (GNCYGTMO);Punto;14.59246944;-90.4774;;;;;#stylemap_tipo_sitio_ila;1;;LA MONTAÑA;;1017;;
CELDA VISTA HERMOSA IV (GNCYGTV4);Punto;14.6025;-90.4628;;;;;#stylemap_tipo_sitio_roadm0;1;SAN ISIDRO;;;;;
MIRAFLORES (GNCYGTMR);Punto;14.62077778;-90.54875;;;;;#stylemap_tipo_sitio_roadm0;1;GUARDA VIEJO;;;;;
CELDA QUETZALTENANGO VI (SHELTER HOSPITAL) (QTZLGTX6);Punto;14.86196111;-91.53903889;;;;;#stylemap_tipo_sitio_roadm0;1;LA FLORESTA;;;;;
SAN JUAN OSTUNCALCO (QOSTGTSJ);Punto;14.86895;-91.61983889;;;;;#stylemap_tipo_sitio_roadm0;1;LA FLORESTA;;;2358;;
ESCUELA PARA EL HOGAR (QTZLGTEA);Punto;14.86604444;-91.518625;;;;;#stylemap_tipo_sitio_roadm0;1;LA FLORESTA;;;9480;;
ROTONDA TECUN UMAN (QTZLGTRT);Punto;14.85998611;-91.522575;;;;;#stylemap_tipo_sitio_roadm0;1;LA FLORESTA;;;9492;;
ESCUELA BENITO JUAREZ (QTZLGTEB);Punto;14.83965556;-91.50373056;;;;;#stylemap_tipo_sitio_roadm0;1;LA FLORESTA;;;9478;;
CONDOMINIO MARTA ELIZA (QTZLGTOA);Punto;14.86681389;-91.52360556;;;;;#stylemap_tipo_sitio_roadm0;1;LA FLORESTA;;;;;
GASOLINERA SAN CARLOS (QTZLGTGS);Punto;14.83616667;-91.51133611;;;;;#stylemap_tipo_sitio_roadm0;1;LA FLORESTA;;;9482;;
PUENTE RIO SECO (QTZLGTPR);Punto;14.84903056;-91.51196389;;;;;#stylemap_tipo_sitio_roadm0;1;LA FLORESTA;;;9491;;
TIKAL (GNCYGTTK);Punto;14.6289;-90.55269722;;;;;#stylemap_tipo_sitio_roadm0;1;GUARDA VIEJO;;;;;
TORRE (TOR-CSC0);Punto;14.60944444;-90.52611111;;;;;#stylemap_tipo_sitio_roadm0;1;RCT;;;;;
CELDA KAMINAL JUYU (GNCYGTKJ);Punto;14.62583333;-90.54694444;;;;;#stylemap_tipo_sitio_roadm0;1;GUARDA VIEJO;;;2133;;
SAN JORGE (GNCYGTSJ);Punto;14.62084722;-90.55497222;;;;;#stylemap_tipo_sitio_roadm0;1;GUARDA VIEJO;;;2032;;
MSAN MADERO (GNCYGT09);Punto;14.59745556;-90.53953056;;;;;#stylemap_tipo_sitio_roadm0;1;GUARDA VIEJO;;;;;
CELDA LOS AMATES (IAMAGTLA);Punto;15.1965;-89.13780278;;;;;#stylemap_tipo_sitio_roadm0;1;LOS AMATES;;;1411;;
CELDA DAKOTA (IAMAGTDA);Punto;15.29969444;-89.03216667;;;;;#stylemap_tipo_sitio_roadm0;1;LOS AMATES;;;3615;;
QUIRIGUA (IAMAGTQU);Punto;15.27455;-89.07475833;;;;;#stylemap_tipo_sitio_roadm0;1;LOS AMATES;;;9534;;
CELDA LAS VEGUITAS (USJEGTVE);Punto;14.7453;-89.4606;;;;;#stylemap_tipo_sitio_roadm0;1;CHIQUIMULA;;;1371;;
ESQUIPULAS (UESQGTES);Punto;14.56361111;-89.35055556;;;;;#stylemap_tipo_sitio_roadm0;1;CHIQUIMULA;;;1425;;
CONCEPCION LAS MINAS (UCMIGTCM);Punto;14.52083333;-89.45722222;;;;;#stylemap_tipo_sitio_roadm0;1;CHIQUIMULA;;;;;
CELDA CHIQUIMULA II (UCHIGTC2);Punto;14.7929;-89.5504;;;;;#stylemap_tipo_sitio_roadm0;1;CHIQUIMULA;;;1317;;
LAS FLORES (UCHIGTFL);Punto;14.79138333;-89.55344167;;;;;#stylemap_tipo_sitio_roadm0;1;CHIQUIMULA;;;;;
BARRIO LA DEMOCRACIA (UCHIGTBD);Punto;14.79902222;-89.55118333;;;;;#stylemap_tipo_sitio_roadm0;1;CHIQUIMULA;;;;;
CELDA CHIQUIMULA III (UCHIGTC3);Punto;14.80694444;-89.53383333;;;;;#stylemap_tipo_sitio_roadm0;1;CHIQUIMULA;;;1364;;
SAN FELIPE (RSFEGTSF);Punto;14.62427778;-91.59669167;;;;;#stylemap_tipo_sitio_roadm0;1;RETALHULEU;;;2327;;
CELDA CONCEPCION PITAL (RNSCGTCP);Punto;14.56638889;-91.70602778;;;;;#stylemap_tipo_sitio_roadm0;1;RETALHULEU;;;4006;;
SIBANA / EL XAB (RASIGTSX);Punto;14.5747;-91.77570278;;;;;#stylemap_tipo_sitio_roadm0;1;RETALHULEU;;;;;
SAN SEBASTIAN RETALHULEU (RSSEGTSE);Punto;14.5599;-91.64800278;;;;;#stylemap_tipo_sitio_roadm0;1;RETALHULEU;;;2229;;
EL ASINTAL (RASIGTAS);Punto;14.59305556;-91.72611111;;;;;#stylemap_tipo_sitio_roadm0;1;RETALHULEU;;;2239;;
CELDA ALDEA SAN LUIS (RSFEGTAS);Punto;14.59763889;-91.63638889;;;;;#stylemap_tipo_sitio_roadm0;1;RETALHULEU;;;3641;;
CELDA XAB Y EL RECREO (RASIGTXL);Punto;14.56408333;-91.72991667;;;;;#stylemap_tipo_sitio_roadm0;1;RETALHULEU;;;2294;;
VILLAS DEL MILAGRO (GMIXGTVI);Punto;14.701875;-90.52925833;;;;;#stylemap_tipo_sitio_roadm0;1;EL MILAGRO;;;;;
CELDA SANTA ROSITA (GNCYGTSO);Punto;14.6234;-90.48090278;;;;;#stylemap_tipo_sitio_roadm0;1;ACATAN;;;1033;;
CELDA VISTA HERMOSA SACATEPEQUEZ (GSPSGTVE);Punto;14.68227778;-90.61661111;;;;;#stylemap_tipo_sitio_roadm0;1;EL CAMINERO;;;2161;;
CELDA CAROLINGIA II (GMIXGTC2);Punto;14.67133333;-90.58397222;;;;;#stylemap_tipo_sitio_roadm0;1;EL CAMINERO;;;3502;;
CELDA MIXCO NORTE (GMIXGTMN);Punto;14.65458333;-90.60169444;;;;;#stylemap_tipo_sitio_roadm0;1;EL CAMINERO;;;2042;;
VILLA CANALES (GVCAGTVC);Punto;14.4792;-90.53330278;;;;;#stylemap_tipo_sitio_roadm0;1;EL FRUTAL;;;2138;;
FUENTES DEL VALLE IV (CONDADO EL CARMEN) (GSMPGTFV);Punto;14.50560833;-90.57249167;;;;;#stylemap_tipo_sitio_roadm0;1;EL FRUTAL;;;9079;;
CELDA PLANES DE VILLA NUEVA II (GVNUGTPI);Punto;14.50983333;-90.57016667;;;;;#stylemap_tipo_sitio_roadm0;1;EL FRUTAL;;;3545;;
CELDA TICAMEX (GVNUGTTI);Punto;14.50458333;-90.58019444;;;;;#stylemap_tipo_sitio_roadm0;1;EL FRUTAL;;;;;
CELDA PLANES DE VILLA NUEVA (GVNUGTPV);Punto;14.5167;-90.5717;;;;;#stylemap_tipo_sitio_roadm0;1;EL FRUTAL;;;;;
CELDA SAN MIGUEL PETAPA (GSMPGTSM);Punto;14.5019;-90.5641;;;;;#stylemap_tipo_sitio_roadm0;1;EL FRUTAL;;;2104;;
CELDA GRANJAS GERONA COUBICADO (GSMPGTGR);Punto;14.5081;-90.5523;;;;;#stylemap_tipo_sitio_roadm0;1;EL FRUTAL;;;4112;;
EL NARANJO (GMIXGTNA);Punto;14.67441667;-90.54869444;;;;;#stylemap_tipo_sitio_roadm0;1;BOSQUES DE SAN NICOLAS;;;;;
CELDA MIXCO ZONA 4 (GMIXGTZ4);Punto;14.66102778;-90.5585;;;;;#stylemap_tipo_sitio_roadm0;1;BOSQUES DE SAN NICOLAS;;;3373;;
ESTANZUELA (ZESTGTES);Punto;14.994;-89.5789;;;;;#stylemap_tipo_sitio_roadm0;1;ZACAPA;;;;;
CELDA ZACAPA II (ZCPAGTZ2);Punto;14.96778056;-89.5373;;;;;#stylemap_tipo_sitio_roadm0;1;ZACAPA;;;1320;;
CELDA COLONIA SANTA MARIA ZACAPA (ZCPAGTCS);Punto;14.96402778;-89.53180556;;;;;#stylemap_tipo_sitio_roadm0;1;ZACAPA;;;3770;;
CELDA LLANO DE PIEDRA (ZCPAGTLP);Punto;14.95375;-89.5555;;;;;#stylemap_tipo_sitio_roadm0;1;ZACAPA;;;3434;;
CELDA LA MAJADA ZACAPA (ZCPAGTLM);Punto;14.98438889;-89.53388889;;;;;#stylemap_tipo_sitio_roadm0;1;ZACAPA;;;3440;;
MSAN SANTA ROSALIA (ZCPAGTMS);Punto;14.93271111;-89.52426944;;;;;#stylemap_tipo_sitio_roadm0;1;ZACAPA;;;;;
LA CALZADA (ZCPAGTCA);Punto;14.97186389;-89.53757778;;;;;#stylemap_tipo_sitio_roadm0;1;ZACAPA;;;;;
BARRIO LA ESTACION (ZCPAGTBE);Punto;14.97055;-89.54314167;;;;;#stylemap_tipo_sitio_roadm0;1;ZACAPA;;;;;
CABAÑAS (ZCABGTCA);Punto;14.93333333;-89.7975;;;;;#stylemap_tipo_sitio_roadm0;1;ZACAPA;;;;;
SAN DIEGO (ZSDIGTSD);Punto;14.78944444;-89.77638889;;;;;#stylemap_tipo_sitio_roadm0;1;ZACAPA;;;1483;;
BANVI (ZCPAGTBA);Punto;14.96958333;-89.52706111;;;;;#stylemap_tipo_sitio_roadm0;1;ZACAPA;;;;;
CERRO CANCHACAN (PPOPGTCA);Punto;16.24027778;-89.43027778;;;;;#stylemap_tipo_sitio_roadm0;1;POPTUN;;;1480;;
CELDA AEROPUERTO POPTUN (PPOPGTAP);Punto;16.33069444;-89.40558333;;;;;#stylemap_tipo_sitio_roadm0;1;POPTUN;;;1853;;
CELDA MACHAQUILA (PPOPGTMA);Punto;16.39330556;-89.44527778;;;;;#stylemap_tipo_sitio_roadm0;1;POPTUN;;;1471;;
CELDA SAN JOSE BUENA FE (PLIBGTSS);Punto;16.59295833;-90.49986111;;;;;#stylemap_tipo_sitio_roadm0;1;SAYAXCHE;;;1726;;
CHIQUIMULILLA (OCHIGTCH);Punto;14.08666667;-90.37944444;;;;;#stylemap_tipo_sitio_roadm0;1;BARBERENA;;;1219;;
CUILAPA (OCUIGTCU);Punto;14.27388889;-90.305;;;;;#stylemap_tipo_sitio_roadm0;1;BARBERENA;;;4518;;
EL CERINAL (OBARGTCE);Punto;14.3323;-90.3986;;;;;#stylemap_tipo_sitio_roadm0;1;BARBERENA;;;1220;;
CELDA MONTECILLOS (OCUIGTMN);Punto;14.29638889;-90.33166667;;;;;#stylemap_tipo_sitio_roadm0;1;BARBERENA;;;1231;;
CELDA SANTA CRUZ NARANJO (OSCNGTSC);Punto;14.38888889;-90.37027778;;;;;#stylemap_tipo_sitio_roadm0;1;BARBERENA;;;;;
CELDA BARBERENA II (OBARGTB2);Punto;14.3024;-90.3497;;;;;#stylemap_tipo_sitio_roadm0;1;BARBERENA;;;3553;;
CELDA CASILLAS (ONSRGTCA);Punto;14.39888889;-90.24528056;;;;;#stylemap_tipo_sitio_roadm0;1;BARBERENA;;;1249;;
EL CARMEN FRONTERA (NMALGTCF);Punto;14.9634;-92.14358889;;;;;#stylemap_tipo_sitio_roadm0;1;MALACATAN;;;;;
CELDA CATARINA (NCATGTCT);Punto;14.84191667;-92.08263889;;;;;#stylemap_tipo_sitio_roadm0;1;MALACATAN;;;2369;;
CELDA CRUCE A MALACATAN Y EL CARMEN (NMALGTCA);Punto;14.91277778;-92.09755556;;;;;#stylemap_tipo_sitio_roadm0;1;MALACATAN;;;2384;;
SAN PABLO (NSPAGTSP);Punto;14.9346;-92.00350278;;;;;#stylemap_tipo_sitio_roadm0;1;MALACATAN;;;4302;;
CELDA SAN ANTONIO SOCORRO (NMALGTSA);Punto;14.8793;-92.0971;;;;;#stylemap_tipo_sitio_roadm0;1;MALACATAN;;;4322;;
CELDA LA UNION EL RODEO (NRODGTLU);Punto;14.9026;-92.0057;;;;;#stylemap_tipo_sitio_roadm0;1;MALACATAN;;;4319;;
EL RANCHO (YGUAGTRA);Punto;14.9265;-90.01460278;;;;;#stylemap_tipo_sitio_roadm0;1;GUASTATOYA;;;1407;;
SANARATE (YSANGTSN);Punto;14.79833333;-90.20416667;;;;;#stylemap_tipo_sitio_roadm0;1;GUASTATOYA;;;1404;;
CELDA PALO AMONTONADO (YGUAGTPA);Punto;14.88727778;-90.06019444;;;;;#stylemap_tipo_sitio_roadm0;1;GUASTATOYA;;;3811;;
EL JICARO (YJICGTJI);Punto;14.9119;-89.8956;;;;;#stylemap_tipo_sitio_roadm0;1;GUASTATOYA;;;1491;;
CENTRO MEDICO_XT_SBA (GNCYGT84);Punto;14.61061944;-90.5095;;;;;#stylemap_tipo_sitio_roadm0;1;TIVOLI;;;6317;;
CELDA QUEZADA (JQUEGTQE);Punto;14.27;-90.0299;;;;;#stylemap_tipo_sitio_roadm0;1;JUTIAPA;;;1217;;
SANTA CATARINA MITA (JSCMGTSC);Punto;14.4506;-89.7461;;;;;#stylemap_tipo_sitio_roadm0;1;JUTIAPA;;;1310;;
EL PROGRESO JUTIAPA (JPROGTPJ);Punto;14.35632222;-89.84414444;;;;;#stylemap_tipo_sitio_roadm0;1;JUTIAPA;;;;;
MONJAS (LMONGTMO);Punto;14.50575;-89.86619444;;;;;#stylemap_tipo_sitio_roadm0;1;JUTIAPA;;;1437;;
CERRO YUPILTEPEQUE (JYUPGTCY);Punto;14.2094;-89.7995;;;;;#stylemap_tipo_sitio_roadm0;1;JUTIAPA;;;1224;;
CELDA EL CAULOTE (JTPAGTCA);Punto;14.27491667;-89.97147222;;;;;#stylemap_tipo_sitio_roadm0;1;JUTIAPA;;;;;
CELDA PUENTE VIEJO JUTIAPA (JTPAGTPV);Punto;14.28443056;-89.89095278;;;;;#stylemap_tipo_sitio_roadm0;1;JUTIAPA;;;5625;;
CELDA EL CHILTEPE (JTPAGTCH);Punto;14.27163889;-89.88816667;;;;;#stylemap_tipo_sitio_roadm0;1;JUTIAPA;;;1842;;
CELDA JUTIAPA IV (COMPLEJO) (JTPAGTJ4);Punto;14.28316667;-89.88391667;;;;;#stylemap_tipo_sitio_roadm0;1;JUTIAPA;;;;;
CELDA JUTIAPA (JTPAGTJI);Punto;14.29027778;-89.89555556;;;;;#stylemap_tipo_sitio_roadm0;1;JUTIAPA;;;1226;;
CELDA LAS TUNAS I (JTPAGTTI);Punto;14.30161111;-89.92058333;;;;;#stylemap_tipo_sitio_roadm0;1;JUTIAPA;;;3836;;
DISPENSARIO ZONA 5 (GNCYGTDI);Punto;14.62247222;-90.506;;;;;#stylemap_tipo_sitio_roadm0;1;TIVOLI;;;1002;;
ARISTOS (GNCYGTRI);Punto;14.60675;-90.51583333;;;;;#stylemap_tipo_sitio_roadm0;1;TELECOMUNIQUE;;;9062;;
EDIFICIO GEMINIS 10 (GNCYGTEG);Punto;14.60128889;-90.51453056;;;;;#stylemap_tipo_sitio_roadm0;1;TIVOLI;;;;;
EDIFICIO SIXTINO_XT (GNCYGT53);Punto;14.60667;-90.50969;;;;;#stylemap_tipo_sitio_roadm0;1;TIVOLI;;;4177;;
AEREOPUERTO LA AURORA (AERONAUTICA CIVIL) (GNCYGTEV);Punto;14.5885;-90.53040278;;;;;#stylemap_tipo_sitio_roadm0;1;TIVOLI;;;9066;;
CENTRO COMERCIAL ZONA 4 (GNCYGTC4);Punto;14.62513889;-90.51646111;;;;;#stylemap_tipo_sitio_roadm0;1;TIVOLI;;;;;
JARDINES DE LA ASUNCION (GNCYGTJA);Punto;14.63278056;-90.49722222;;;;;#stylemap_tipo_sitio_roadm0;1;CENTRO;;;;;
CELDA MORAZAN ZONA 02 (GNCYGTMZ);Punto;14.65191667;-90.51347222;;;;;#stylemap_tipo_sitio_roadm0;1;CENTRO;;;1038;;
TORRE (SERVERS_);Punto;14.60944444;-90.52611111;;;;;#stylemap_tipo_sitio_roadm0;1;TORRE;;;;;
GUALAN (ZGUAGTGU);Punto;15.1132;-89.3621;;;;;#stylemap_tipo_sitio_roadm0;1;RIO HONDO;;;;;
TECULUTAN (ZTECGTTE);Punto;14.99111111;-89.71861111;;;;;#stylemap_tipo_sitio_roadm0;1;RIO HONDO;;;;;
EL ROSARIO (ZCABGTRO);Punto;15.08555;-89.472825;;;;;#stylemap_tipo_sitio_roadm0;1;RIO HONDO;;;;;
MONTE MARIA (GVNUGTMM);Punto;14.5774;-90.56479722;;;;;#stylemap_tipo_sitio_roadm0;1;EL CARMEN;;;2115;;
CELDA ATANASIO TZUL SUR (GNCYGTAT);Punto;14.58305556;-90.5425;;;;;#stylemap_tipo_sitio_roadm0;1;EL CARMEN;;;2107;;
GINSA PETAPA (CAVISA) (GNCYGTGI);Punto;14.56561111;-90.54883333;;;;;#stylemap_tipo_sitio_roadm0;1;EL CARMEN;;;2028;;
CENTRAL DE MAYOREO (GVNUGTCM);Punto;14.56856667;-90.56173333;;;;;#stylemap_tipo_sitio_roadm0;1;EL CARMEN;;;9003;;
SAN CRISTOBAL (GMIXGTSC);Punto;14.5976;-90.5866;;;;;#stylemap_tipo_sitio_roadm0;1;EL CARMEN;;;2134;;
CELDA CENTRO ESCOLAR LAS CHARCAS (GNCYGTNH);Punto;14.58276944;-90.57371667;;;;;#stylemap_tipo_sitio_roadm0;1;EL CARMEN;;;2770;;
CELDA LAS CHARCAS (GNCYGTCH);Punto;14.5938;-90.5643;;;;;#stylemap_tipo_sitio_roadm0;1;EL CARMEN;;;2139;;
VALLE DORADO (GMIXGTVD);Punto;14.56532222;-90.58202778;;;;;#stylemap_tipo_sitio_roadm0;1;EL CARMEN;;;9054;;
MONTE MARIA (CT AGUILAR BATRES)_XT (GNCYGT3N);Punto;14.58595;-90.56461944;;;;;#stylemap_tipo_sitio_roadm0;1;;CLARO XT;;2169;;
AGUILAR BATRES (CT_7606_);Punto;14.58553333;-90.56432222;;;;;#stylemap_tipo_sitio_roadm0;1;CLARO XT;;;;;
TIKAL (TIKAL);Punto;14.63756667;-90.56085833;;;;;#stylemap_tipo_sitio_roadm0;1;;;;;;
ZAPOTE (GUAZA1R-);Punto;14.66196667;-90.51593889;;;;;#stylemap_tipo_sitio_roadm0;1;CLARO XT;;;;;
AGUILAR BATRES (GUAAB6R-);Punto;14.58553333;-90.56432222;;;;;#stylemap_tipo_sitio_roadm0;1;CLARO XT;;;;;
AGUILAR BATRES (GUAAB7R-);Punto;14.58553333;-90.56432222;;;;;#stylemap_tipo_sitio_roadm0;1;CLARO XT;;;;;
AGUILAR BATRES (GUAAB3R-);Punto;14.58553333;-90.56432222;;;;;#stylemap_tipo_sitio_roadm0;1;;CLARO XT;;;;
ZAPOTE (GUAZA2R-);Punto;14.66196667;-90.51593889;;;;;#stylemap_tipo_sitio_roadm0;1;CLARO XT;;;;;
AGUILAR BATRES (GUAAB8R-);Punto;14.58553333;-90.56432222;;;;;#stylemap_tipo_sitio_roadm0;1;CLARO XT;;;;;
ZAPOTE (SW_C4507);Punto;14.66196667;-90.51593889;;;;;#stylemap_tipo_sitio_roadm0;1;CLARO XT;;;;;
ZAPOTE (GUAZA3R-);Punto;14.66196667;-90.51593889;;;;;#stylemap_tipo_sitio_roadm0;1;;CLARO XT;;;;
ZAPOTE (PE_CENTR);Punto;14.66196667;-90.51593889;;;;;#stylemap_tipo_sitio_roadm0;1;CLARO XT;;;;;
PETAPA (PETAPA);Punto;14.60466667;-90.53931111;;;;;#stylemap_tipo_sitio_roadm0;1;;;;;;
ZAPOTE (ZAP_1200);Punto;14.66196667;-90.51593889;;;;;#stylemap_tipo_sitio_roadm0;1;;CLARO XT;;;;
ZAPOTE (ZAP_6506);Punto;14.66196667;-90.51593889;;;;;#stylemap_tipo_sitio_roadm0;1;CLARO XT;;;;;
UNICENTRO (UNICENTR);Punto;14.59213056;-90.51205;;;;;#stylemap_tipo_sitio_roadm0;1;;;;;;
Reforma (REFORMA_);Punto;14.60840278;-90.51543056;;;;;#stylemap_tipo_sitio_roadm0;1;;;;;;
TORRE CAFE (TORRE_CA);Punto;14.62469444;-90.51445;;;;;#stylemap_tipo_sitio_roadm0;1;;;;;;
Salesiano (SALESIAN);Punto;14.62435556;-90.52104722;;;;;#stylemap_tipo_sitio_roadm0;1;;;;;;
ZAPOTE (ZAPOTE);Punto;14.66196667;-90.51593889;;;;;#stylemap_tipo_sitio_roadm0;1;;;;;;
GUARDA VIEJO (GDV-CSC0);Punto;14.615;-90.53416667;;;;;#stylemap_tipo_sitio_roadm0;1;MPBN;;;;;
VILLA DE GUADALUPE (VDG-CSC0);Punto;14.59122222;-90.50822222;;;;;#stylemap_tipo_sitio_roadm0;1;;GUARDA VIEJO;;;;
CENTRO (CEN-SVA-);Punto;14.63705556;-90.51272222;;;;;#stylemap_tipo_sitio_roadm0;1;MPBN;;;;;
CELDA LOTIFICACION SAN RAFAEL I POSTE (GNCYGTT1);Punto;14.57311944;-90.48211944;;;;;#stylemap_tipo_sitio_roadm0;1;;VISTA HERMOSA;;5055;;
CELDA MIRADOR CARRETERA EL SALVADOR POSTE (GSCPGTMC);Punto;14.57958889;-90.47796944;;;;;#stylemap_tipo_sitio_roadm0;1;;VISTA HERMOSA;;3269;;
CELDA SANTA ROSALIA VILLAS DEL PARQUE (GSCPGTSV);Punto;14.57763611;-90.46201389;;;;;#stylemap_tipo_sitio_roadm0;1;VISTA HERMOSA;;;3910;;
CELDA MONTE BELLO (GSCPGTMB);Punto;14.5715;-90.4755;;;;;#stylemap_tipo_sitio_roadm0;1;VISTA HERMOSA;;;1019;;
SANTA ROSALIA (GSCPGTAR);Punto;14.57627778;-90.47183333;;;;;#stylemap_tipo_sitio_roadm0;1;VISTA HERMOSA;;;9051;;
CELDA COLONIA EL MAESTRO II COUBICADO (GNCYGTBG);Punto;14.60213889;-90.50147222;;;;;#stylemap_tipo_sitio_roadm0;1;;VISTA HERMOSA;;3243;;
CELDA SANTA ROSALIA LAS MAGNOLIAS (GSCPGTSS);Punto;14.58189722;-90.46393333;;;;;#stylemap_tipo_sitio_roadm0;1;VISTA HERMOSA;;;3913;;
CELDA SANTA ROSALIA BAJOS LIRIOS (GSCPGTSB);Punto;14.579375;-90.46786667;;;;;#stylemap_tipo_sitio_roadm0;1;VISTA HERMOSA;;;3917;;
CELDA EL CEDRO CALDERAS (ESVPGTCC);Punto;14.406;-90.6073;;;;;#stylemap_tipo_sitio_roadm0;1;;AMATITLAN;;;;
CELDA LOTIFICACION SAN JUAN AMATITLAN (GAMAGTLN);Punto;14.48894167;-90.64405556;;;;;#stylemap_tipo_sitio_roadm0;1;AMATITLAN;;;2754;;
CELDA VALLE DE LAS FLORES PALIN (EPALGTVL);Punto;14.39677778;-90.72566667;;;;;#stylemap_tipo_sitio_roadm0;1;;AMATITLAN;;2049;;
CELDA PALIN (EPALGTPL);Punto;14.41176944;-90.69533056;;;;;#stylemap_tipo_sitio_roadm0;1;AMATITLAN;;;2270;;
SAN VICENTE PACAYA (ESVPGTSV);Punto;14.41444444;-90.63305556;;;;;#stylemap_tipo_sitio_roadm0;1;AMATITLAN;;;2267;;
CELDA ASIOLE (GAMAGTAS);Punto;14.49083333;-90.62830556;;;;;#stylemap_tipo_sitio_roadm0;1;;AMATITLAN;;2286;;
CELDA COLONIA SAN JUAN BAUTISTA COUBICADO (GAMAGTCS);Punto;14.46374722;-90.62999722;;;;;#stylemap_tipo_sitio_roadm0;1;;AMATITLAN;;2997;;
CELDA LOS SAUCES AMATITLAN (GAMAGTSA);Punto;14.43996944;-90.64783056;;;;;#stylemap_tipo_sitio_roadm0;1;;AMATITLAN;;3241;;
CELDA PALIN - AMATITLAN (EPALGTPM);Punto;14.42186111;-90.65686111;;;;;#stylemap_tipo_sitio_roadm0;1;AMATITLAN;;;2299;;
CELDA CENTRO COMERCIAL MAJADAS I (GNCYGTJW);Punto;14.62393889;-90.55781944;;;;;#stylemap_tipo_sitio_roadm0;1;;UTATLAN;;4414;;
VILLA LINDA (GNCYGTVL);Punto;14.6425;-90.54540278;;;;;#stylemap_tipo_sitio_roadm0;1;UTATLAN;;;3803;;
COLONIA 4 DE FEBRERO (GUA043)_XT (GNCYGT57);Punto;14.6441;-90.54067;;;;;#stylemap_tipo_sitio_roadm0;1;;UTATLAN;;4748;;
CELDA COLMENAS VILLA CANALES (GVCAGTCV);Punto;14.48705556;-90.51563889;;;;;#stylemap_tipo_sitio_roadm0;1;;EL FRUTAL;;2835;;
CELDA RIVERA AZUL SAN LUCAS AMATITLAN (GAMAGTRZ);Punto;14.450025;-90.54511111;;;;;#stylemap_tipo_sitio_roadm0;1;;EL FRUTAL;;2785;;
CELDA SAN JOSE EL TABLON (GVCAGTSJ);Punto;14.47472222;-90.51869444;;;;;#stylemap_tipo_sitio_roadm0;1;;EL FRUTAL;;3746;;
CELDA MAYAN GOLF (GVNUGTMG);Punto;14.48902778;-90.58002778;;;;;#stylemap_tipo_sitio_roadm0;1;;EL FRUTAL;;2129;;
CELDA EL ZAPOTE (GAMAGTEZ);Punto;14.4599;-90.581;;;;;#stylemap_tipo_sitio_roadm0;1;;EL FRUTAL;;1688;;
CELDA SUACITE (GSJSGTSU);Punto;14.824;-90.6201;;;;;#stylemap_tipo_sitio_roadm0;1;MONTE VERDE;;;2830;;
CELDA LOS PIRIR (GSJSGTPI);Punto;14.8207;-90.6806;;;;;#stylemap_tipo_sitio_roadm0;1;MONTE VERDE;;;4543;;
CELDA RESIDENCIALES DEL SUR (GVNUGTRS);Punto;14.54013889;-90.59330556;;;;;#stylemap_tipo_sitio_roadm0;1;;VILLA NUEVA;;;;
CELDA LA REINITA (GNCYGTLR);Punto;14.66538889;-90.48683333;;;;;#stylemap_tipo_sitio_roadm0;1;;PARROQUIA;;1012;;
RESIDENCIALES VILLAS DE SAN ANGEL (GNCYGTRV);Punto;14.67404167;-90.50399167;;;;;#stylemap_tipo_sitio_roadm0;1;PARROQUIA;;;;;
CELDA JOCOTALES - SANTA LUISA (GNCYGTJT);Punto;14.6842;-90.48670278;;;;;#stylemap_tipo_sitio_roadm0;1;PARROQUIA;;;5026;;
CELDA JOCOTALES - SANTA FAZ (GCHIGTJS);Punto;14.6889;-90.4881;;;;;#stylemap_tipo_sitio_roadm0;1;PARROQUIA;;;1140;;
CELDA CHINAUTLA POSTE 1 HUAWEI (GCHIGTCP);Punto;14.7039;-90.498;;;;;#stylemap_tipo_sitio_roadm0;1;PARROQUIA;;;4361;;
CELDA VISTA HERMOSA SACATEPEQUEZ II (GSPSGTVR);Punto;14.67536389;-90.60913611;;;;;#stylemap_tipo_sitio_roadm0;1;;EL CAMINERO;;2927;;
CELDA CAROLINGIA (GMIXGTCR);Punto;14.67538889;-90.57961111;;;;;#stylemap_tipo_sitio_roadm0;1;EL CAMINERO;;;3587;;
CELDA CIUDAD QUETZAL CARRETERA COUBICADO (GSPSGTCQ);Punto;14.68819722;-90.57176111;;;;;#stylemap_tipo_sitio_roadm0;1;MONTE VERDE;;;2589;;
CELDA LO DE DIEGUEZ (GFRAGTDD);Punto;14.51902778;-90.43244444;;;;;#stylemap_tipo_sitio_roadm0;1;DON JUSTO;;;1611;;
CELDA YUMANES (OSRLGTYS);Punto;14.4752;-90.4014;;;;;#stylemap_tipo_sitio_roadm0;1;DON JUSTO;;;1511;;
CELDA SACOJ (GMIXGTAC);Punto;14.70363889;-90.52858333;;;;;#stylemap_tipo_sitio_roadm0;1;;EL MILAGRO;;2153;;
VILLAS DEL MILAGRO II (GCHIGTVI);Punto;14.70140278;-90.5243;;;;;#stylemap_tipo_sitio_roadm0;1;EL MILAGRO;;;;;
TIERRA NUEVA 3_XT (GCHIGTTU);Punto;14.686197;-90.515919;;;;;#stylemap_tipo_sitio_roadm0;1;;BOSQUES DE SAN NICOLAS;;6419;;
CELDA TIERRA NUEVA (GMIXGTTN);Punto;14.6811;-90.52173889;;;;;#stylemap_tipo_sitio_roadm0;1;BOSQUES DE SAN NICOLAS;;;2055;;
CELDA PRIMERO DE MAYO (GMIXGTPM);Punto;14.67313889;-90.53280556;;;;;#stylemap_tipo_sitio_roadm0;1;;BOSQUES DE SAN NICOLAS;;2014;;
CELDA BOSQUES DE SAN NICOLAS III (GMIXGTBA);Punto;14.6686;-90.5596;;;;;#stylemap_tipo_sitio_roadm0;1;;BOSQUES DE SAN NICOLAS;;2186;;
CELDA BOULEVARD EL NARANJO III (GMIXGTOA);Punto;14.66143611;-90.55216667;;;;;#stylemap_tipo_sitio_roadm0;1;BOSQUES DE SAN NICOLAS;;;2737;;
CELDA PLANES DE MINERVA (GMIXGTPV);Punto;14.68055556;-90.54761111;;;;;#stylemap_tipo_sitio_roadm0;1;;BOSQUES DE SAN NICOLAS;;1640;;
JARDINES DE MINERVA (GUA055)_XT (GMIXGTJN);Punto;14.6758059;-90.554086;;;;;#stylemap_tipo_sitio_roadm0;1;;BOSQUES DE SAN NICOLAS;;6418;;
CENTRO (GNCYGTNT);Punto;14.63846667;-90.51618056;;;;;#stylemap_tipo_sitio_roadm0;1;;TELECOMUNIQUE;;;;
MIRAFLORES (GNCYGTML);Punto;14.61532778;-90.55290278;;;;;#stylemap_tipo_sitio_roadm0;1;TELECOMUNIQUE;;;;;
EL CARMEN (GNCYGTRM);Punto;14.59443889;-90.55793611;;;;;#stylemap_tipo_sitio_roadm0;1;;TELECOMUNIQUE;;;;
PETAPA (GNCYGTTA);Punto;14.58455;-90.5466;;;;;#stylemap_tipo_sitio_roadm0;1;TELECOMUNIQUE;;;;;
VILLA NUEVA (GVNUGTVE);Punto;14.52775278;-90.58981389;;;;;#stylemap_tipo_sitio_roadm0;1;TELECOMUNIQUE;;;;;
SAN CRISTOBAL (GMIXGTSR);Punto;14.60110556;-90.58124722;;;;;#stylemap_tipo_sitio_roadm0;1;TELECOMUNIQUE;;;;;
TIKAL FUTURA (GNCYGTTU);Punto;14.62336667;-90.55356389;;;;;#stylemap_tipo_sitio_roadm0;1;TELECOMUNIQUE;;;9237;;
MULTIMEDICA (GNCYGTMM);Punto;14.58225556;-90.48508333;;;;;#stylemap_tipo_sitio_roadm0;1;;TELECOMUNIQUE;;;;
VILLA DE GUADALUPE (GNCYGTVU);Punto;14.59167778;-90.50726111;;;;;#stylemap_tipo_sitio_roadm0;1;TELECOMUNIQUE;;;9238;;
ROOSEVELTH (GMIXGTRO);Punto;14.63460278;-90.58359444;;;;;#stylemap_tipo_sitio_roadm0;1;TELECOMUNIQUE;;;;;
EUROPLAZA (GNCYGTUP);Punto;14.58855278;-90.51230278;;;;;#stylemap_tipo_sitio_roadm0;1;TELECOMUNIQUE;;;;;
FUNDABIEM (GMIXGTFN);Punto;14.61291389;-90.606725;;;;;#stylemap_tipo_sitio_roadm0;1;TELECOMUNIQUE;;;;;
HINCAPIE (GNCYGTHC);Punto;14.57401944;-90.52684444;;;;;#stylemap_tipo_sitio_roadm0;1;TELECOMUNIQUE;;;;;
VILLA ALCANTARA (GMIXGTVA);Punto;14.65463889;-90.58928611;;;;;#stylemap_tipo_sitio_roadm0;1;;TELECOMUNIQUE;;;;
LAS MARGARITAS (GNCYGTMA);Punto;14.60675;-90.50653056;;;;;#stylemap_tipo_sitio_roadm0;1;VILLA DE GUADALUPE;;;;;
CELDA VILLA DEPORTIVA CAYALA (GNCYGTY3);Punto;14.61434167;-90.48299722;;;;;#stylemap_tipo_sitio_roadm0;1;;ACATAN;;3268;;
HACIENDA REAL (GNCYGTHR);Punto;14.6117;-90.46130278;;;;;#stylemap_tipo_sitio_roadm0;1;SAN ISIDRO;;;;;
CELDA CLUB SAN ISIDRO (GNCYGTSD);Punto;14.600675;-90.46993333;;;;;#stylemap_tipo_sitio_roadm0;1;;SAN ISIDRO;;1143;;
YEPOCAPA (CSPYGTYE);Punto;14.50299444;-90.95048333;;;;;#stylemap_tipo_sitio_roadm0;1;;ESCUINTLA;;2335;;
CELDA QUISAJCHE (CACAGTQU);Punto;14.52261944;-90.93901944;;;;;#stylemap_tipo_sitio_roadm0;1;ESCUINTLA;;;4226;;
CELDA AMATES PUEBLO (IAMAGTAP);Punto;15.2554;-89.0944;;;;;#stylemap_tipo_sitio_roadm0;1;;LOS AMATES;;3758;;
CELDA CERRO LOS AMATES (IAMAGTLT);Punto;15.27002778;-89.08738889;;;;;#stylemap_tipo_sitio_roadm0;1;;LOS AMATES;;4503;;
IGLESIA LA MERCED (QTZLGTIM);Punto;14.83701389;-91.51095556;;;;;#stylemap_tipo_sitio_roadm0;1;LA FLORESTA;;;;;
VILLA VICTORIA (QTZLGTVV);Punto;14.84271944;-91.50395278;;;;;#stylemap_tipo_sitio_roadm0;1;LA FLORESTA;;;;;
COLONIA DELCO (QTZLGTOD);Punto;14.85137778;-91.53401944;;;;;#stylemap_tipo_sitio_roadm0;1;LA FLORESTA;;;;;
COLONIA LA FLORESTA (QTZLGTCF);Punto;14.85437222;-91.53692222;;;;;#stylemap_tipo_sitio_roadm0;1;LA FLORESTA;;;;;
COLONIA LA DEMOCRACIA (QTZLGTOE);Punto;14.85684444;-91.53484444;;;;;#stylemap_tipo_sitio_roadm0;1;LA FLORESTA;;;;;
COLONIA SAN GABRIEL (QTZLGTOS);Punto;14.855975;-91.52176944;;;;;#stylemap_tipo_sitio_roadm0;1;LA FLORESTA;;;;;
MERCADO LOS TRIGALES (QTZLGTET);Punto;14.86219167;-91.52185278;;;;;#stylemap_tipo_sitio_roadm0;1;LA FLORESTA;;;;;
JARDINES DE XELAJU (QTZLGTJX);Punto;14.86219167;-91.52185278;;;;;#stylemap_tipo_sitio_roadm0;1;LA FLORESTA;;;;;
CENTRO REGIONAL DE JUSTICIA (QTZLGTCJ);Punto;14.85941667;-91.51205556;;;;;#stylemap_tipo_sitio_roadm0;1;LA FLORESTA;;;;;
CELDA TOJALIC (QMSAGTTO);Punto;14.83333333;-91.64930556;;;;;#stylemap_tipo_sitio_roadm0;1;;LA FLORESTA;;3680;;
CELDA CONCEPCION CHIQUIRICHAPA (QCCHGTCC);Punto;14.84321944;-91.62412222;;;;;#stylemap_tipo_sitio_roadm0;1;LA FLORESTA;;;2349;;
CELDA SAN FRANCISCO LA UNION (QSFUGTSR);Punto;14.9295;-91.5459;;;;;#stylemap_tipo_sitio_roadm0;1;;LA FLORESTA;;2475;;
SAN CARLOS SIJA (QSCSGTSC);Punto;14.981;-91.5481;;;;;#stylemap_tipo_sitio_roadm0;1;LA FLORESTA;;;;;
CELDA SAN MIGUEL SIGUILA (QSMSGTSM);Punto;14.89288056;-91.6118;;;;;#stylemap_tipo_sitio_roadm0;1;;LA FLORESTA;;4306;;
CELDA CHAJABAL (TSAXGTCH);Punto;14.90875;-91.50880556;;;;;#stylemap_tipo_sitio_roadm0;1;;LA FLORESTA;;4508;;
CELDA EL TEMPISQUE ZACAPA (ZGUAGTET);Punto;15.08708333;-89.46380556;;;;;#stylemap_tipo_sitio_roadm0;1;RIO HONDO;;;1373;;
CELDA ALDEA EL SITIO (NCATGTAS);Punto;14.8161;-92.0924;;;;;#stylemap_tipo_sitio_roadm0;1;MALACATAN;;;3549;;
CELDA LOS CERRITOS MALACATAN (NMALGTLC);Punto;14.90072222;-92.07644444;;;;;#stylemap_tipo_sitio_roadm0;1;MALACATAN;;;4315;;
CELDA MALACATAN II (NMALGTM2);Punto;14.91788889;-92.0497;;;;;#stylemap_tipo_sitio_roadm0;1;MALACATAN;;;3520;;
CELDA SAN MIGUEL PAJAPA (NPAJGTSM);Punto;14.74646944;-91.98652778;;;;;#stylemap_tipo_sitio_roadm0;1;MALACATAN;;;3525;;
EL RODEO (NRODGTRO);Punto;14.9127;-91.97543056;;;;;#stylemap_tipo_sitio_roadm0;1;MALACATAN;;;2257;;
CELDA EL PORVENIR SAN MARCOS (NSPAGTPS);Punto;14.96494444;-91.93835833;;;;;#stylemap_tipo_sitio_roadm0;1;MALACATAN;;;2390;;
CELDA SAN PABLO (NSPAGTSA);Punto;14.9346;-92.0035;;;;;#stylemap_tipo_sitio_roadm0;1;MALACATAN;;;;;
CELDA ZANJON SAN LORENZO (NAYUGTZS);Punto;14.7757;-92.1038;;;;;#stylemap_tipo_sitio_roadm0;1;MALACATAN;;;3749;;
CELDA EL TUMBADOR (NTUMGTET);Punto;14.86277778;-91.93444444;;;;;#stylemap_tipo_sitio_roadm0;1;MALACATAN;;;2366;;
CELDA NICA (NMALGTNI);Punto;14.85;-92.1511;;;;;#stylemap_tipo_sitio_roadm0;1;;MALACATAN;;4549;;
CELDA LAS PILAS CATARINA (NCATGTPC);Punto;14.8771;-92.0721;;;;;#stylemap_tipo_sitio_roadm0;1;MALACATAN;;;4791;;
EL TUMBADOR (NTUMGTTU);Punto;14.8625;-91.935;;;;;#stylemap_tipo_sitio_roadm0;1;;MALACATAN;;;;
CELDA RODEO TUMBADOR (NRODGTRT);Punto;14.87780556;-91.96072222;;;;;#stylemap_tipo_sitio_roadm0;1;MALACATAN;;;4529;;
CELDA LA MONTAÑA MALACATAN (NMALGTML);Punto;14.89286944;-92.08931111;;;;;#stylemap_tipo_sitio_roadm0;1;MALACATAN;;;4790;;
CELDA SAN FRANCISCO NUEVA REFORMA (NMALGTSF);Punto;14.93566389;-92.07930278;;;;;#stylemap_tipo_sitio_roadm0;1;MALACATAN;;;2882;;
CELDA LA CURVA (NMALGTCU);Punto;14.9365;-92.0999;;;;;#stylemap_tipo_sitio_roadm0;1;MALACATAN;;;4015;;
CELDA COLIMA (NMALGTCO);Punto;14.92;-91.95905556;;;;;#stylemap_tipo_sitio_roadm0;1;;MALACATAN;;1694;;
SAN PEDRO PINULA (LSPPGTSP);Punto;14.66502778;-89.84708333;;;;;#stylemap_tipo_sitio_roadm0;1;;JUTIAPA;;1466;;
CELDA FINCA LA PIEDRONA (LSPPGTFP);Punto;14.6725;-89.88638889;;;;;#stylemap_tipo_sitio_roadm0;1;JUTIAPA;;;3444;;
CELDA COLONIA BUENOS AIRES ZACAPA (ZCPAGTCB);Punto;14.9723;-89.53908889;;;;;#stylemap_tipo_sitio_roadm0;1;;ZACAPA;;5198;;
CELDA SANTA ROSALIA (ZCPAGTSR);Punto;14.93333333;-89.51933333;;;;;#stylemap_tipo_sitio_roadm0;1;ZACAPA;;;3817;;
CELDA EL PARAISO PETEN (PLIBGTPP);Punto;17.08705556;-90.86291667;;;;;#stylemap_tipo_sitio_roadm0;1;;SANTA ELENA PETEN;;4527;;
CELDA PARAISO LAGUNITAS (PLIBGTPL);Punto;17.1291;-90.8596;;;;;#stylemap_tipo_sitio_roadm0;1;SANTA ELENA PETEN;;;1357;;
CELDA SAN JOAQUIN PETEN (PLIBGTSJ);Punto;16.92058333;-90.25305556;;;;;#stylemap_tipo_sitio_roadm0;1;;SANTA ELENA PETEN;;1342;;
CELDA EL ESQUELETO (PLIBGTEE);Punto;16.9494;-90.6243;;;;;#stylemap_tipo_sitio_roadm0;1;SANTA ELENA PETEN;;;4311;;
CELDA SAN DIEGO PETEN (PLIBGTSD);Punto;16.91619444;-90.42391667;;;;;#stylemap_tipo_sitio_roadm0;1;SANTA ELENA PETEN;;;3581;;
CELDA LAS MARIAS PETEN (PLIBGTLM);Punto;16.9315;-90.521;;;;;#stylemap_tipo_sitio_roadm0;1;SANTA ELENA PETEN;;;3568;;
CELDA FINCA EL CHAPAYAL (PLIBGTFC);Punto;16.9224;-90.4717;;;;;#stylemap_tipo_sitio_roadm0;1;SANTA ELENA PETEN;;;1343;;
CELDA SAN BENITO (PSBEGTSN);Punto;16.917;-89.91809722;;;;;#stylemap_tipo_sitio_roadm0;1;;SANTA ELENA PETEN;;1323;;
CELDA SAN MIGUEL (PFLOGTSM);Punto;16.93713889;-89.88780556;;;;;#stylemap_tipo_sitio_roadm0;1;;SANTA ELENA PETEN;;1347;;
CELDA PARCELAMIENTO BETHANIA (PLIBGTPB);Punto;16.83094167;-90.79377778;;;;;#stylemap_tipo_sitio_roadm0;1;;SANTA ELENA PETEN;;;;
CELDA VISTA HERMOSA PETEN (PLIBGTVH);Punto;16.69830556;-90.56886111;;;;;#stylemap_tipo_sitio_roadm0;1;SANTA ELENA PETEN;;;4345;;
CERRO EL SUBIN (PSAYGTSU);Punto;16.5937;-90.1719;;;;;#stylemap_tipo_sitio_roadm0;1;SANTA ELENA PETEN;;;1444;;
CELDA PALESTINA PETEN (PLIBGTPA);Punto;16.6834;-90.4837;;;;;#stylemap_tipo_sitio_roadm0;1;SANTA ELENA PETEN;;;3476;;
CELDA JOSEFINOS (PLIBGTJO);Punto;16.6691;-90.3991;;;;;#stylemap_tipo_sitio_roadm0;1;SANTA ELENA PETEN;;;;;
CELDA SAN BENITO II (PSBEGTSE);Punto;16.9154;-89.9078;;;;;#stylemap_tipo_sitio_roadm0;1;;SANTA ELENA PETEN;;1447;;
SAN ANDRES (PSANGTSA);Punto;16.96611111;-89.91111111;;;;;#stylemap_tipo_sitio_roadm0;1;;SANTA ELENA PETEN;;1324;;
POLOGUA (TMOMGTPO);Punto;15.04483333;-91.51294444;;;;;#stylemap_tipo_sitio_roadm0;1;;LA FLORESTA;;2413;;
CELDA CALEL (QSCSGTCL);Punto;15.09769444;-91.56819444;;;;;#stylemap_tipo_sitio_roadm0;1;LA FLORESTA;;;4346;;
CELDA SANTA MARIA DE JESUS QUETZALTENANGO (QZUNGTSA);Punto;14.722;-91.5271;;;;;#stylemap_tipo_sitio_roadm0;1;;MAZATENANGO;;2310;;
CELDA SAN LORENZO PUEBLO SUCHITEPEQUEZ (MSLOGTLP);Punto;14.48385;-91.51308056;;;;;#stylemap_tipo_sitio_roadm0;1;;MAZATENANGO;;4181;;
CELDA PATUT (MCUYGTPA);Punto;14.3774;-91.55339722;;;;;#stylemap_tipo_sitio_roadm0;1;;MAZATENANGO;;3576;;
CELDA FINCA ENTRE RIOS (MCUYGTFE);Punto;14.4732;-91.57399722;;;;;#stylemap_tipo_sitio_roadm0;1;MAZATENANGO;;;3210;;
SAN JOSE EL IDOLO (MSJIGTSJ);Punto;14.48222222;-91.42166667;;;;;#stylemap_tipo_sitio_roadm0;1;;MAZATENANGO;;2279;;
CELDA FINCA LA ESPERANZA (MSJIGTFE);Punto;14.43222222;-91.44277778;;;;;#stylemap_tipo_sitio_roadm0;1;MAZATENANGO;;;4212;;
CELDA MONTERREY (MSDSGTMO);Punto;14.37441667;-91.459;;;;;#stylemap_tipo_sitio_roadm0;1;;MAZATENANGO;;4310;;
CELDA COMUNIDAD LA VEGA (MSDSGTCV);Punto;14.19208333;-91.59311111;;;;;#stylemap_tipo_sitio_roadm0;1;;MAZATENANGO;;2061;;
LA MAQUINA (MCUYGTMA);Punto;14.3012;-91.566;;;;;#stylemap_tipo_sitio_roadm0;1;MAZATENANGO;;;2253;;
CELDA CHICACAO (MCHIGTCI);Punto;14.5435;-91.32538889;;;;;#stylemap_tipo_sitio_roadm0;1;;MAZATENANGO;;2222;;
CELDA NAHUALATE (MCHIGTNA);Punto;14.44183333;-91.37794444;;;;;#stylemap_tipo_sitio_roadm0;1;MAZATENANGO;;;2284;;
CELDA FINCA VARIEDADES (MSBAGTFV);Punto;14.4095;-91.2683;;;;;#stylemap_tipo_sitio_roadm0;1;;MAZATENANGO;;2216;;
SANTA BARBARA (MSBAGTSB);Punto;14.4354;-91.2281;;;;;#stylemap_tipo_sitio_roadm0;1;MAZATENANGO;;;2281;;
CELDA CUNSUROC (MZTNGTCU);Punto;14.52730556;-91.52013889;;;;;#stylemap_tipo_sitio_roadm0;1;;MAZATENANGO;;4318;;
SAN PABLO JOCOPILAS (MSPJGTSP);Punto;14.5906;-91.4514;;;;;#stylemap_tipo_sitio_roadm0;1;;MAZATENANGO;;2046;;
CELDA SAMAYAC (MSAMGTSA);Punto;14.58055556;-91.46388889;;;;;#stylemap_tipo_sitio_roadm0;1;MAZATENANGO;;;2223;;
CELDA MONTELLANO (MSMPGTMO);Punto;14.48452778;-91.35927778;;;;;#stylemap_tipo_sitio_roadm0;1;;MAZATENANGO;;2297;;
CELDA CERRO GUASTATOYA (YGUAGTCG);Punto;14.86569444;-90.06919444;;;;;#stylemap_tipo_sitio_roadm0;1;GUASTATOYA;;;1405;;
CELDA TROCHAS 12 Y 13 (ENCOGTT1);Punto;14.02325;-91.37258056;;;;;#stylemap_tipo_sitio_roadm0;1;;ESCUINTLA;;2814;;
PUENTE LA AMISTAD (SPANGTPM);Punto;14.74055556;-91.1525;;;;;#stylemap_tipo_sitio_roadm0;1;;SOLOLA;;;;
IGLESIA SAN FRANCISCO (SPANGTIS);Punto;14.74055556;-91.15305556;;;;;#stylemap_tipo_sitio_roadm0;1;;SOLOLA;;;;
CHUPOL (KCHIGTCU);Punto;14.8547;-91.0637;;;;;#stylemap_tipo_sitio_roadm0;1;;SOLOLA;;2322;;
CELDA LAS TRAMPAS (SLLAGTLR);Punto;14.83694444;-91.10583333;;;;;#stylemap_tipo_sitio_roadm0;1;SOLOLA;;;2342;;
CELDA XABILAGUACH (KCHIGTXA);Punto;14.88808333;-91.07947222;;;;;#stylemap_tipo_sitio_roadm0;1;SOLOLA;;;;;
SAN ANDRES SEMETABAJ (SSASGTAS);Punto;14.7448;-91.13390278;;;;;#stylemap_tipo_sitio_roadm0;1;SOLOLA;;;2350;;
CELDA SAN ANTONIO PALOPO (SSAPGTSA);Punto;14.6967;-91.11779722;;;;;#stylemap_tipo_sitio_roadm0;1;;SOLOLA;;2386;;
CELDA AGUA ESCONDIDA PALOPO I (SSAPGTAE);Punto;14.6657;-91.1064;;;;;#stylemap_tipo_sitio_roadm0;1;;SOLOLA;;2884;;
CELDA GODINEZ CHIQUISTEL (SSAPGTGC);Punto;14.68663889;-91.09561111;;;;;#stylemap_tipo_sitio_roadm0;1;SOLOLA;;;2383;;
CELDA TZUCUBAL (SSCIGTTZ);Punto;14.7779;-91.3154;;;;;#stylemap_tipo_sitio_roadm0;1;;SOLOLA;;3303;;
CELDA CERRO POCOJIL (KCHIGTPO);Punto;14.9236;-91.12840278;;;;;#stylemap_tipo_sitio_roadm0;1;;SOLOLA;;3344;;
CELDA LOS ENCUENTROS ARGUETA (SPLLGTLE);Punto;14.82888889;-91.18597222;;;;;#stylemap_tipo_sitio_roadm0;1;;SOLOLA;;3317;;
ARGUETA (SLLAGTAR);Punto;14.8103;-91.2286;;;;;#stylemap_tipo_sitio_roadm0;1;;SOLOLA;;;;
CELDA SAN PEDRO LA LAGUNA (SPLLGTPL);Punto;14.6953;-91.27870278;;;;;#stylemap_tipo_sitio_roadm0;1;;SOLOLA;;2332;;
CHUEMINIX (SOL706)_XT (SSCRGTCS);Punto;14.75716111;-91.21083056;;;;;#stylemap_tipo_sitio_roadm0;1;SOLOLA;;;6304;;
CELDA SANTA CLARA LA LAGUNA (SSCLGTSC);Punto;14.7151;-91.3058;;;;;#stylemap_tipo_sitio_roadm0;1;;SOLOLA;;2331;;
CELDA CRISTINA (IAMAGTCR);Punto;15.33683333;-89.03547222;;;;;#stylemap_tipo_sitio_roadm0;1;PUERTO BARRIOS;;;3614;;
CELDA MIRADOR MARISCOS (IAMAGTMM);Punto;15.40219444;-89.05475;;;;;#stylemap_tipo_sitio_roadm0;1;PUERTO BARRIOS;;;3757;;
CELDA PICUATZ (IMORGTPI);Punto;15.5499;-88.688;;;;;#stylemap_tipo_sitio_roadm0;1;PUERTO BARRIOS;;;3776-3818;;
CELDA LA LIBERTAD MORALES (IMORGTLL);Punto;15.40405556;-88.86377778;;;;;#stylemap_tipo_sitio_roadm0;1;;PUERTO BARRIOS;;3620;;
CELDA SEMINOLA (IAMAGTSE);Punto;15.33211111;-88.98430556;;;;;#stylemap_tipo_sitio_roadm0;1;PUERTO BARRIOS;;;3586;;
